{"id":2,"slug":"panomaxweb","type":"roadmap","minLatitude":-41.533641,"minLongitude":-154.249444,"maxLatitude":72.890556,"maxLongitude":147.665592,"instances":{"7":{"id":7,"name":"Gro\u00dfglockner - Kaiser Franz Josefs H\u00f6he","cam":{"id":7,"name":"Kaiser Franz Josefs H\u00f6he","latitude":47.075826,"longitude":12.750602,"zeroDirection":211.5,"viewAngle":235,"iconUrl":"https:\/\/static.panomax.com\/img\/panomax\/icon.png","mapMarkerGravity":"middle-center","nightVision":false}},"8":{"id":8,"name":"360\u00b0 Live Cam","cam":{"id":8,"name":"Hotel Kranzbach","latitude":47.471827,"longitude":11.21258,"zeroDirection":220,"viewAngle":360,"iconUrl":"https:\/\/static.panomax.com\/img\/panomax\/icon.png","mapMarkerGravity":"middle-center","nightVision":false}},"9":{"id":9,"name":"Hotel Goldener Berg","cam":{"id":9,"name":"Hotel Goldener Berg","latitude":47.218512,"longitude":10.136408,"zeroDirection":130,"viewAngle":360,"iconUrl":"https:\/\/static.panomax.com\/img\/panomax\/icon.png","mapMarkerGravity":"middle-center","nightVision":false}},"16":{"id":16,"name":"Fuschertoerl","cam":{"id":16,"name":"Fuschertoerl","latitude":47.116588,"longitude":12.824511,"zeroDirection":292.5,"viewAngle":360,"iconUrl":"https:\/\/static.panomax.com\/img\/panomax\/icon.png","mapMarkerGravity":"middle-center","nightVision":false}},"17":{"id":17,"name":"Edelwei\u00dfspitze","cam":{"id":17,"name":"Edelwei\u00dfspitze","latitude":47.123542,"longitude":12.830682,"zeroDirection":115,"viewAngle":360,"iconUrl":"https:\/\/static.panomax.com\/img\/panomax\/icon.png","mapMarkerGravity":"middle-center","nightVision":true}},"19":{"id":19,"name":"Aberg - Maria Alm","cam":{"id":19,"name":"Aberg - Maria Alm","latitude":47.356764,"longitude":12.919756,"zeroDirection":314.5,"viewAngle":360,"iconUrl":"https:\/\/static.panomax.com\/img\/panomax\/icon.png","mapMarkerGravity":"middle-center","nightVision":true}},"22":{"id":22,"name":"Bad Hofgastein","cam":{"id":22,"name":"Bad Hofgastein","latitude":47.16902,"longitude":13.108792,"zeroDirection":1,"viewAngle":360,"iconUrl":"https:\/\/static.panomax.com\/img\/panomax\/icon.png","mapMarkerGravity":"middle-center","nightVision":false}},"23":{"id":23,"name":"Bad Gastein","cam":{"id":23,"name":"Bad Gastein","latitude":47.116104,"longitude":13.138822,"zeroDirection":305,"viewAngle":250,"iconUrl":"https:\/\/static.panomax.com\/img\/panomax\/icon.png","mapMarkerGravity":"middle-center","nightVision":false}},"24":{"id":24,"name":"Hotel Talblick Hinterglemm","cam":{"id":24,"name":"Hotel Talblick Hinterglemm","latitude":47.377542,"longitude":12.599276,"zeroDirection":31,"viewAngle":360,"iconUrl":"https:\/\/static.panomax.com\/img\/panomax\/icon.png","mapMarkerGravity":"middle-center","nightVision":false}},"26":{"id":26,"name":"Rittisberg","cam":{"id":26,"name":"Rittisberg","latitude":47.419466,"longitude":13.613405,"zeroDirection":321,"viewAngle":360,"iconUrl":"https:\/\/static.panomax.com\/img\/panomax\/icon.png","mapMarkerGravity":"middle-center","nightVision":true}},"46":{"id":46,"name":"Hotel Binggl","cam":{"id":42,"name":"Hotel Binggl","latitude":47.13339,"longitude":13.680311,"zeroDirection":240,"viewAngle":360,"iconUrl":"https:\/\/static.panomax.com\/img\/panomax\/icon.png","mapMarkerGravity":"middle-center","nightVision":false}},"47":{"id":47,"name":"Ellmau","cam":{"id":43,"name":"Ellmau","latitude":47.51107,"longitude":12.304299,"zeroDirection":355.5,"viewAngle":275,"iconUrl":"https:\/\/static.panomax.com\/img\/panomax\/icon.png","mapMarkerGravity":"middle-center","nightVision":true}},"58":{"id":58,"name":"Glattjoch","cam":{"id":47,"name":"Glattjoch","latitude":47.1087,"longitude":9.7022,"zeroDirection":324,"viewAngle":360,"iconUrl":"https:\/\/static.panomax.com\/img\/panomax\/icon.png","mapMarkerGravity":"middle-center","nightVision":false}},"101":{"id":101,"name":"Lalling","cam":{"id":60,"name":"Lalling","latitude":48.845376,"longitude":13.138104,"zeroDirection":160,"viewAngle":360,"iconUrl":"https:\/\/static.panomax.com\/img\/panomax\/icon.png","mapMarkerGravity":"middle-center","nightVision":true}},"163":{"id":163,"name":"Palinkopf","cam":{"id":101,"name":"Palinkopf","latitude":46.950315,"longitude":10.3093,"zeroDirection":157,"viewAngle":360,"iconUrl":"https:\/\/static.panomax.com\/img\/panomax\/icon.png","mapMarkerGravity":"middle-center","nightVision":true}},"178":{"id":178,"name":"Lawinenstein","cam":{"id":111,"name":"Tauplitz Lawinenstein","latitude":47.598493,"longitude":13.968869,"zeroDirection":217,"viewAngle":360,"iconUrl":"https:\/\/static.panomax.com\/img\/panomax\/icon.png","mapMarkerGravity":"middle-center","nightVision":true}},"201":{"id":201,"name":"Zugspitze","cam":{"id":128,"name":"Zugspitze","latitude":47.421182,"longitude":10.98529,"zeroDirection":120.5,"viewAngle":360,"iconUrl":"https:\/\/static.panomax.com\/img\/panomax\/icon.png","mapMarkerGravity":"middle-center","nightVision":true}},"211":{"id":211,"name":"Arsenal Turm","cam":{"id":131,"name":"Wien Arsenal Turm","latitude":48.181959,"longitude":16.390816,"zeroDirection":330,"viewAngle":360,"iconUrl":"https:\/\/static.panomax.com\/img\/panomax\/icon.png","mapMarkerGravity":"middle-center","nightVision":true}},"231":{"id":231,"name":"Boutique Hotel Blaue Burg Falkenstein","cam":{"id":144,"name":"Boutique Hotel Blaue Burg Falkenstein","latitude":47.569424,"longitude":10.591272,"zeroDirection":82.3,"viewAngle":360,"iconUrl":"https:\/\/static.panomax.com\/img\/panomax\/icon.png","mapMarkerGravity":"middle-center","nightVision":true}},"237":{"id":237,"name":"AlpspiX","cam":{"id":150,"name":"AlpspiX","latitude":47.439282,"longitude":11.049759,"zeroDirection":60,"viewAngle":360,"iconUrl":"https:\/\/static.panomax.com\/img\/panomax\/icon.png","mapMarkerGravity":"middle-center","nightVision":true}},"247":{"id":247,"name":"Gerlos Platte Berg","cam":{"id":160,"name":"Gerlos Platte Berg","latitude":47.224688,"longitude":12.13415,"zeroDirection":177,"viewAngle":360,"iconUrl":"https:\/\/static.panomax.com\/img\/panomax\/icon.png","mapMarkerGravity":"middle-center","nightVision":false}},"248":{"id":248,"name":"Gerlospass Talstation","cam":{"id":161,"name":"Gerlospass Talstation","latitude":47.241366,"longitude":12.11453,"zeroDirection":359.7,"viewAngle":360,"iconUrl":"https:\/\/static.panomax.com\/img\/panomax\/icon.png","mapMarkerGravity":"middle-center","nightVision":false}},"249":{"id":249,"name":"Gerlos Isskogel","cam":{"id":162,"name":"Gerlos Isskogel Teich","latitude":47.24414,"longitude":12.02883,"zeroDirection":175.5,"viewAngle":360,"iconUrl":"https:\/\/static.panomax.com\/img\/panomax\/icon.png","mapMarkerGravity":"middle-center","nightVision":false}},"256":{"id":256,"name":"Rosenalm","cam":{"id":168,"name":"Rosenalm","latitude":47.247948,"longitude":11.941665,"zeroDirection":97,"viewAngle":360,"iconUrl":"https:\/\/static.panomax.com\/img\/panomax\/icon.png","mapMarkerGravity":"middle-center","nightVision":false}},"269":{"id":269,"name":"Going","cam":{"id":179,"name":"Going","latitude":47.511458,"longitude":12.323621,"zeroDirection":144.5,"viewAngle":360,"iconUrl":"https:\/\/static.panomax.com\/img\/panomax\/icon.png","mapMarkerGravity":"middle-center","nightVision":false}},"270":{"id":270,"name":"Schafbergspitze","cam":{"id":180,"name":"Schafbergspitze","latitude":47.777003,"longitude":13.431767,"zeroDirection":191,"viewAngle":360,"iconUrl":"https:\/\/static.panomax.com\/img\/panomax\/icon.png","mapMarkerGravity":"middle-center","nightVision":true}},"283":{"id":283,"name":"Kaiblinggrat 8er Bergstation","cam":{"id":191,"name":"Hauser Kaibling - Bergstation","latitude":47.377525,"longitude":13.77061,"zeroDirection":70,"viewAngle":360,"iconUrl":"https:\/\/static.panomax.com\/img\/panomax\/icon.png","mapMarkerGravity":"middle-center","nightVision":true}},"286":{"id":286,"name":"Grosser Arber","cam":{"id":193,"name":"Grosser Arber","latitude":49.113065,"longitude":13.138793,"zeroDirection":188,"viewAngle":360,"iconUrl":"https:\/\/static.panomax.com\/img\/panomax\/icon.png","mapMarkerGravity":"middle-center","nightVision":false}},"289":{"id":289,"name":"07. Tiefenbachgletscher Talstation","cam":{"id":195,"name":"S\u00f6lden - Tiefenbachferner Tal","latitude":46.923405,"longitude":10.945859,"zeroDirection":225,"viewAngle":250,"iconUrl":"https:\/\/static.panomax.com\/img\/panomax\/icon.png","mapMarkerGravity":"middle-center","nightVision":true}},"290":{"id":290,"name":"05. Rettenbachgletscher Talstation","cam":{"id":196,"name":"S\u00f6lden - Rettenbachferner","latitude":46.941197,"longitude":10.9316,"zeroDirection":60,"viewAngle":360,"iconUrl":"https:\/\/static.panomax.com\/img\/panomax\/icon.png","mapMarkerGravity":"middle-center","nightVision":true}},"316":{"id":316,"name":"06. Schwarze Schneidbahn Mittelstation","cam":{"id":216,"name":"S\u00f6lden - Schwarze Schneid MST","latitude":46.934524,"longitude":10.924812,"zeroDirection":21,"viewAngle":360,"iconUrl":"https:\/\/static.panomax.com\/img\/panomax\/icon.png","mapMarkerGravity":"middle-center","nightVision":true}},"343":{"id":343,"name":"Wank","cam":{"id":149,"name":"Wank","latitude":47.507011,"longitude":11.146857,"zeroDirection":178,"viewAngle":360,"iconUrl":"https:\/\/static.panomax.com\/img\/panomax\/icon.png","mapMarkerGravity":"middle-center","nightVision":true}},"366":{"id":366,"name":"Reit im Winkl, Skipiste","cam":{"id":248,"name":"Reit im Winkl, Skipiste","latitude":47.6793,"longitude":12.473882,"zeroDirection":181,"viewAngle":200,"iconUrl":"https:\/\/static.panomax.com\/img\/panomax\/icon.png","mapMarkerGravity":"middle-center","nightVision":false}},"435":{"id":435,"name":"Pyramidenkogel - Aussichtsurm","cam":{"id":297,"name":"Pyramidenkogel - Aussichtsturm","latitude":46.609016,"longitude":14.144984,"zeroDirection":44,"viewAngle":360,"iconUrl":"https:\/\/static.panomax.com\/img\/panomax\/icon.png","mapMarkerGravity":"middle-center","nightVision":true}},"460":{"id":460,"name":"Mayrhofen coolnest Ramsau","cam":{"id":321,"name":"Mayrhofen coolnest Ramsau","latitude":47.205211,"longitude":11.876828,"zeroDirection":248,"viewAngle":205,"iconUrl":"https:\/\/static.panomax.com\/img\/panomax\/icon.png","mapMarkerGravity":"middle-center","nightVision":false}},"471":{"id":471,"name":"Idalp","cam":{"id":331,"name":"Idalp","latitude":46.982482,"longitude":10.317581,"zeroDirection":115,"viewAngle":100,"iconUrl":"https:\/\/static.panomax.com\/img\/panomax\/icon.png","mapMarkerGravity":"middle-center","nightVision":true}},"474":{"id":474,"name":"Hotel am Badersee","cam":{"id":334,"name":"Hotel am Badersee","latitude":47.473616,"longitude":11.015458,"zeroDirection":273,"viewAngle":360,"iconUrl":"https:\/\/static.panomax.com\/img\/panomax\/icon.png","mapMarkerGravity":"middle-center","nightVision":false}},"475":{"id":475,"name":"Innsbruck Info","cam":{"id":335,"name":"Innsbruck Hotel Adlers","latitude":47.265987,"longitude":11.401354,"zeroDirection":283,"viewAngle":360,"iconUrl":"https:\/\/static.panomax.com\/img\/panomax\/icon.png","mapMarkerGravity":"middle-center","nightVision":true}},"488":{"id":488,"name":"Seefelder Joch","cam":{"id":346,"name":"Seefelder Joch","latitude":47.340802,"longitude":11.239262,"zeroDirection":308,"viewAngle":360,"iconUrl":"https:\/\/static.panomax.com\/img\/panomax\/icon.png","mapMarkerGravity":"middle-center","nightVision":true}},"508":{"id":508,"name":"S\u00f6ll TVB","cam":{"id":365,"name":"S\u00f6ll Ort - TVB","latitude":47.507328,"longitude":12.198067,"zeroDirection":136,"viewAngle":360,"iconUrl":"https:\/\/static.panomax.com\/img\/panomax\/icon.png","mapMarkerGravity":"middle-center","nightVision":false}},"511":{"id":511,"name":"Rossh\u00fctte","cam":{"id":368,"name":"Seefeld Rossh\u00fctte","latitude":47.341306,"longitude":11.227728,"zeroDirection":160,"viewAngle":360,"iconUrl":"https:\/\/static.panomax.com\/img\/panomax\/icon.png","mapMarkerGravity":"middle-center","nightVision":true}},"556":{"id":556,"name":"Kirche Seefeld Ort","cam":{"id":409,"name":"Kirche Seefeld Ort","latitude":47.32882,"longitude":11.18675,"zeroDirection":59,"viewAngle":280,"iconUrl":"https:\/\/static.panomax.com\/img\/panomax\/icon.png","mapMarkerGravity":"middle-center","nightVision":true}},"573":{"id":573,"name":"Inselsberg","cam":{"id":426,"name":"Inselsberg","latitude":50.851021,"longitude":10.467047,"zeroDirection":226,"viewAngle":360,"iconUrl":"https:\/\/static.panomax.com\/img\/panomax\/icon.png","mapMarkerGravity":"middle-center","nightVision":false}},"580":{"id":580,"name":"Seekirchl Panorama","cam":{"id":431,"name":"Seefeld - Seekirchl Panorama","latitude":47.327845,"longitude":11.179408,"zeroDirection":145,"viewAngle":195,"iconUrl":"https:\/\/static.panomax.com\/img\/panomax\/icon.png","mapMarkerGravity":"middle-center","nightVision":true}},"626":{"id":626,"name":"Krimml","cam":{"id":467,"name":"Krimml","latitude":47.214152,"longitude":12.168658,"zeroDirection":210,"viewAngle":360,"iconUrl":"https:\/\/static.panomax.com\/img\/panomax\/icon.png","mapMarkerGravity":"middle-center","nightVision":false}},"631":{"id":631,"name":"Hotel Bergheimat","cam":{"id":471,"name":"Hotel Bergheimat","latitude":47.39073,"longitude":13.11565,"zeroDirection":119,"viewAngle":360,"iconUrl":"https:\/\/static.panomax.com\/img\/panomax\/icon.png","mapMarkerGravity":"middle-center","nightVision":false}},"662":{"id":662,"name":"Livigno Mottolino","cam":{"id":494,"name":"Livigno Mottolino","latitude":46.53616,"longitude":10.127591,"zeroDirection":130,"viewAngle":125,"iconUrl":"https:\/\/static.panomax.com\/img\/panomax\/icon.png","mapMarkerGravity":"middle-center","nightVision":false}},"665":{"id":665,"name":"Schloss Elmau","cam":{"id":496,"name":"Schloss Elmau","latitude":47.461918,"longitude":11.186174,"zeroDirection":180,"viewAngle":226,"iconUrl":"https:\/\/static.panomax.com\/img\/panomax\/icon.png","mapMarkerGravity":"middle-center","nightVision":true}},"675":{"id":675,"name":"03. Hochs\u00f6lden","cam":{"id":501,"name":"Hochs\u00f6lden","latitude":46.975907,"longitude":10.983221,"zeroDirection":58,"viewAngle":360,"iconUrl":"https:\/\/static.panomax.com\/img\/panomax\/icon.png","mapMarkerGravity":"middle-center","nightVision":true}},"679":{"id":679,"name":"Dachstein","cam":{"id":505,"name":"Dachstein","latitude":47.467794,"longitude":13.626355,"zeroDirection":10,"viewAngle":360,"iconUrl":"https:\/\/static.panomax.com\/img\/panomax\/icon.png","mapMarkerGravity":"middle-center","nightVision":true}},"691":{"id":691,"name":"Telfs","cam":{"id":512,"name":"Telfs","latitude":47.304918,"longitude":11.070057,"zeroDirection":289,"viewAngle":360,"iconUrl":"https:\/\/static.panomax.com\/img\/panomax\/icon.png","mapMarkerGravity":"middle-center","nightVision":true}},"701":{"id":701,"name":"Brendturm","cam":{"id":519,"name":"Brendturm","latitude":48.079179,"longitude":8.157639,"zeroDirection":213,"viewAngle":260,"iconUrl":"https:\/\/static.panomax.com\/img\/panomax\/icon.png","mapMarkerGravity":"middle-center","nightVision":false}},"718":{"id":718,"name":"Zw\u00f6lferhorn","cam":{"id":533,"name":"Zw\u00f6lferhorn","latitude":47.742688,"longitude":13.35419,"zeroDirection":352,"viewAngle":360,"iconUrl":"https:\/\/static.panomax.com\/img\/panomax\/icon.png","mapMarkerGravity":"middle-center","nightVision":true}},"720":{"id":720,"name":"Gro\u00dfarl TVB","cam":{"id":534,"name":"Gro\u00dfarl Ort","latitude":47.242853,"longitude":13.201781,"zeroDirection":255,"viewAngle":185,"iconUrl":"https:\/\/static.panomax.com\/img\/panomax\/icon.png","mapMarkerGravity":"middle-center","nightVision":false}},"725":{"id":725,"name":"Hotel Edelweiss und Gurgl","cam":{"id":539,"name":"Hotel Edelweiss und Gurgl","latitude":46.869357,"longitude":11.026899,"zeroDirection":307.5,"viewAngle":360,"iconUrl":"https:\/\/static.panomax.com\/img\/panomax\/icon.png","mapMarkerGravity":"middle-center","nightVision":false}},"763":{"id":763,"name":"Winklmoos","cam":{"id":571,"name":"Winklmoos","latitude":47.656358,"longitude":12.58452,"zeroDirection":333,"viewAngle":360,"iconUrl":"https:\/\/static.panomax.com\/img\/panomax\/icon.png","mapMarkerGravity":"middle-center","nightVision":false}},"770":{"id":770,"name":"Gemeinde Eisenberg","cam":{"id":578,"name":"Burg Hohenfreyberg","latitude":47.612354,"longitude":10.590032,"zeroDirection":226,"viewAngle":360,"iconUrl":"https:\/\/static.panomax.com\/img\/panomax\/icon.png","mapMarkerGravity":"middle-center","nightVision":true}},"788":{"id":788,"name":"Filzstein Hotel","cam":{"id":596,"name":"Filzstein","latitude":47.232351,"longitude":12.15722,"zeroDirection":253,"viewAngle":360,"iconUrl":"https:\/\/static.panomax.com\/img\/panomax\/icon.png","mapMarkerGravity":"middle-center","nightVision":false}},"819":{"id":819,"name":"Langeoog","cam":{"id":619,"name":"Langeoog","latitude":53.752472,"longitude":7.481062,"zeroDirection":40,"viewAngle":360,"iconUrl":"https:\/\/static.panomax.com\/img\/panomax\/icon.png","mapMarkerGravity":"middle-center","nightVision":false}},"831":{"id":831,"name":"Leutschach a d Weinstra\u00dfe (TVB)","cam":{"id":627,"name":"Leutschach an der Weinstra\u00dfe - Eorykogel","latitude":46.65207,"longitude":15.511219,"zeroDirection":47,"viewAngle":360,"iconUrl":"https:\/\/static.panomax.com\/img\/panomax\/icon.png","mapMarkerGravity":"middle-center","nightVision":true}},"869":{"id":869,"name":"Leutasch","cam":{"id":654,"name":"Quellenhof","latitude":47.370224,"longitude":11.158455,"zeroDirection":212,"viewAngle":360,"iconUrl":"https:\/\/static.panomax.com\/img\/panomax\/icon.png","mapMarkerGravity":"middle-center","nightVision":false}},"902":{"id":902,"name":"Frankenburg","cam":{"id":675,"name":"Frankenburg Aussichtsturm","latitude":48.093171,"longitude":13.526425,"zeroDirection":202.7,"viewAngle":360,"iconUrl":"https:\/\/static.panomax.com\/img\/panomax\/icon.png","mapMarkerGravity":"middle-center","nightVision":false}},"912":{"id":912,"name":"Lichtenberg","cam":{"id":683,"name":"Lichtenberg","latitude":47.932797,"longitude":13.425645,"zeroDirection":46,"viewAngle":360,"iconUrl":"https:\/\/static.panomax.com\/img\/panomax\/icon.png","mapMarkerGravity":"middle-center","nightVision":false}},"952":{"id":952,"name":"Mittenwald","cam":{"id":717,"name":"Mittenwald","latitude":47.444959,"longitude":11.256836,"zeroDirection":200,"viewAngle":280,"iconUrl":"https:\/\/static.panomax.com\/img\/panomax\/icon.png","mapMarkerGravity":"middle-center","nightVision":false}},"953":{"id":953,"name":"Kr\u00fcn","cam":{"id":718,"name":"Kr\u00fcn","latitude":47.50427,"longitude":11.281401,"zeroDirection":182,"viewAngle":360,"iconUrl":"https:\/\/static.panomax.com\/img\/panomax\/icon.png","mapMarkerGravity":"middle-center","nightVision":false}},"954":{"id":954,"name":"Wallgau","cam":{"id":719,"name":"Wallgau","latitude":47.528551,"longitude":11.290064,"zeroDirection":213.5,"viewAngle":90,"iconUrl":"https:\/\/static.panomax.com\/img\/panomax\/icon.png","mapMarkerGravity":"middle-center","nightVision":false}},"955":{"id":955,"name":"Les Houches","cam":{"id":720,"name":"Les Houches","latitude":45.886141,"longitude":6.75263,"zeroDirection":145,"viewAngle":315,"iconUrl":"https:\/\/static.panomax.com\/img\/panomax\/icon.png","mapMarkerGravity":"middle-center","nightVision":false}},"995":{"id":995,"name":"Ramsau Stadion","cam":{"id":748,"name":"Ramsau Stadion","latitude":47.419022,"longitude":13.653625,"zeroDirection":71,"viewAngle":360,"iconUrl":"https:\/\/static.panomax.com\/img\/panomax\/icon.png","mapMarkerGravity":"middle-center","nightVision":true}},"998":{"id":998,"name":"Skilifte Schr\u00f6cken Talstation","cam":{"id":751,"name":"Skilifte Schr\u00f6cken Talstation","latitude":47.265823,"longitude":10.128346,"zeroDirection":57,"viewAngle":360,"iconUrl":"https:\/\/static.panomax.com\/img\/panomax\/icon.png","mapMarkerGravity":"middle-center","nightVision":false}},"1008":{"id":1008,"name":"Galsterberg","cam":{"id":760,"name":"Galsterberg","latitude":47.384512,"longitude":13.866551,"zeroDirection":165,"viewAngle":360,"iconUrl":"https:\/\/static.panomax.com\/img\/panomax\/icon.png","mapMarkerGravity":"middle-center","nightVision":true}},"1009":{"id":1009,"name":"Zauchensee.com","cam":{"id":761,"name":"Zauchensee.com","latitude":47.293571,"longitude":13.457961,"zeroDirection":262,"viewAngle":250,"iconUrl":"https:\/\/static.panomax.com\/img\/panomax\/icon.png","mapMarkerGravity":"middle-center","nightVision":false}},"1041":{"id":1041,"name":"Skilifte Schr\u00f6cken Bergstation","cam":{"id":786,"name":"Skilifte Schr\u00f6cken Bergstation","latitude":47.255174,"longitude":10.133637,"zeroDirection":227.5,"viewAngle":310,"iconUrl":"https:\/\/static.panomax.com\/img\/panomax\/icon.png","mapMarkerGravity":"middle-center","nightVision":false}},"1072":{"id":1072,"name":"Panoramabahn","cam":{"id":793,"name":"Brandnertal Panoramabahn","latitude":47.128304,"longitude":9.742342,"zeroDirection":326,"viewAngle":360,"iconUrl":"https:\/\/static.panomax.com\/img\/panomax\/icon.png","mapMarkerGravity":"middle-center","nightVision":true}},"1125":{"id":1125,"name":"Henndorf","cam":{"id":807,"name":"Henndorf","latitude":47.893318,"longitude":13.220009,"zeroDirection":135,"viewAngle":360,"iconUrl":"https:\/\/static.panomax.com\/img\/panomax\/icon.png","mapMarkerGravity":"middle-center","nightVision":false}},"1135":{"id":1135,"name":"M\u00f6sern Inntalerhof | TVB Seefeld","cam":{"id":816,"name":"M\u00f6sern","latitude":47.311264,"longitude":11.144133,"zeroDirection":172.5,"viewAngle":360,"iconUrl":"https:\/\/static.panomax.com\/img\/panomax\/icon.png","mapMarkerGravity":"middle-center","nightVision":false}},"1178":{"id":1178,"name":"Brentenjoch","cam":{"id":849,"name":"Kufstein - Brentenjoch","latitude":47.577759,"longitude":12.209578,"zeroDirection":179.5,"viewAngle":360,"iconUrl":"https:\/\/static.panomax.com\/img\/panomax\/icon.png","mapMarkerGravity":"middle-center","nightVision":true}},"1180":{"id":1180,"name":"Hochwurzen","cam":{"id":851,"name":"Hochwurzen","latitude":47.360176,"longitude":13.639609,"zeroDirection":30,"viewAngle":360,"iconUrl":"https:\/\/static.panomax.com\/img\/panomax\/icon.png","mapMarkerGravity":"middle-center","nightVision":true}},"1198":{"id":1198,"name":"Walchsee","cam":{"id":864,"name":"Walchsee","latitude":47.648544,"longitude":12.316914,"zeroDirection":87,"viewAngle":255,"iconUrl":"https:\/\/static.panomax.com\/img\/panomax\/icon.png","mapMarkerGravity":"middle-center","nightVision":false}},"1203":{"id":1203,"name":"Cervinia Matterhorn","cam":{"id":867,"name":"Cervinia Matterhorn","latitude":45.941871,"longitude":7.662481,"zeroDirection":350,"viewAngle":360,"iconUrl":"https:\/\/static.panomax.com\/img\/panomax\/icon.png","mapMarkerGravity":"middle-center","nightVision":false}},"1238":{"id":1238,"name":"BBC Glastonbury Webcam","cam":{"id":879,"name":"Glastonbury","latitude":51.159009,"longitude":-2.583231,"zeroDirection":207,"viewAngle":170,"iconUrl":"https:\/\/static.panomax.com\/img\/panomax\/icon.png","mapMarkerGravity":"middle-center","nightVision":false}},"1263":{"id":1263,"name":"Trezzo Castle tower","cam":{"id":909,"name":"Trezzo Castle tower","latitude":45.611917,"longitude":9.522201,"zeroDirection":4.3,"viewAngle":360,"iconUrl":"https:\/\/static.panomax.com\/img\/panomax\/icon.png","mapMarkerGravity":"middle-center","nightVision":false}},"1267":{"id":1267,"name":"Festungsbahn - Altstadt Salzburg","cam":{"id":913,"name":"Festungsbahn","latitude":47.795686,"longitude":13.046239,"zeroDirection":310,"viewAngle":360,"iconUrl":"https:\/\/static.panomax.com\/img\/panomax\/icon.png","mapMarkerGravity":"middle-center","nightVision":false}},"1269":{"id":1269,"name":"Gargellen","cam":{"id":915,"name":"Gargellen","latitude":46.961359,"longitude":9.891442,"zeroDirection":190,"viewAngle":360,"iconUrl":"https:\/\/static.panomax.com\/img\/panomax\/icon.png","mapMarkerGravity":"middle-center","nightVision":false}},"1270":{"id":1270,"name":"La Thuile - Chaz Dura","cam":{"id":916,"name":"La Thuile - Chaz Dura","latitude":45.691595,"longitude":6.916226,"zeroDirection":262,"viewAngle":360,"iconUrl":"https:\/\/static.panomax.com\/img\/panomax\/icon.png","mapMarkerGravity":"middle-center","nightVision":true}},"1285":{"id":1285,"name":"Schneekopf Turm","cam":{"id":927,"name":"Schneekopf Turm","latitude":50.66629,"longitude":10.763617,"zeroDirection":43,"viewAngle":360,"iconUrl":"https:\/\/static.panomax.com\/img\/panomax\/icon.png","mapMarkerGravity":"middle-center","nightVision":false}},"1289":{"id":1289,"name":"Plateau Rosa","cam":{"id":931,"name":"Plateau Rosa","latitude":45.935302,"longitude":7.707355,"zeroDirection":355.8,"viewAngle":360,"iconUrl":"https:\/\/static.panomax.com\/img\/panomax\/icon.png","mapMarkerGravity":"middle-center","nightVision":true}},"1314":{"id":1314,"name":"Golfplatz Ehrwald","cam":{"id":956,"name":"Golfplatz Ehrwald","latitude":47.40276,"longitude":10.9033,"zeroDirection":183,"viewAngle":360,"iconUrl":"https:\/\/static.panomax.com\/img\/panomax\/icon.png","mapMarkerGravity":"middle-center","nightVision":true}},"1316":{"id":1316,"name":"Waldeck am Edersee","cam":{"id":958,"name":"Waldeck am Edersee","latitude":51.204,"longitude":9.055718,"viewAngle":360,"iconUrl":"https:\/\/static.panomax.com\/img\/panomax\/icon.png","mapMarkerGravity":"middle-center","nightVision":false}},"1320":{"id":1320,"name":"Nova Stoba","cam":{"id":961,"name":"Nova Stoba","latitude":46.980118,"longitude":9.992064,"zeroDirection":357,"viewAngle":300,"iconUrl":"https:\/\/static.panomax.com\/img\/panomax\/icon.png","mapMarkerGravity":"middle-center","nightVision":false}},"1321":{"id":1321,"name":"Panorama Bahn","cam":{"id":962,"name":"Silvretta Montafon  - Panorama Bahn","latitude":47.060572,"longitude":9.97622,"zeroDirection":91.5,"viewAngle":245,"iconUrl":"https:\/\/static.panomax.com\/img\/panomax\/icon.png","mapMarkerGravity":"middle-center","nightVision":true}},"1322":{"id":1322,"name":"H\u00fcttenkopfbahn","cam":{"id":963,"name":"H\u00fcttenkopfbahn","latitude":47.064789,"longitude":9.838508,"zeroDirection":310,"viewAngle":360,"iconUrl":"https:\/\/static.panomax.com\/img\/panomax\/icon.png","mapMarkerGravity":"middle-center","nightVision":false}},"1323":{"id":1323,"name":"Hotel Post Lermoos","cam":{"id":964,"name":"Hotel Post Lermoos","latitude":47.397991,"longitude":10.887996,"zeroDirection":94,"viewAngle":165,"iconUrl":"https:\/\/static.panomax.com\/img\/panomax\/icon.png","mapMarkerGravity":"middle-center","nightVision":false}},"1324":{"id":1324,"name":"Grimming Therme","cam":{"id":965,"name":"Grimming Therme","latitude":47.54522,"longitude":13.928474,"zeroDirection":285,"viewAngle":360,"iconUrl":"https:\/\/static.panomax.com\/img\/panomax\/icon.png","mapMarkerGravity":"middle-center","nightVision":false}},"1325":{"id":1325,"name":"Salzburg Airport","cam":{"id":966,"name":"Salzburg Airport","latitude":47.793803,"longitude":12.997799,"zeroDirection":88,"viewAngle":360,"iconUrl":"https:\/\/static.panomax.com\/img\/panomax\/icon.png","mapMarkerGravity":"middle-center","nightVision":true}},"1326":{"id":1326,"name":"Ehrwalder Almbahn","cam":{"id":967,"name":"Ehrwalder Almbahn","latitude":47.384036,"longitude":10.968708,"zeroDirection":100,"viewAngle":360,"iconUrl":"https:\/\/static.panomax.com\/img\/panomax\/icon.png","mapMarkerGravity":"middle-center","nightVision":true}},"1329":{"id":1329,"name":"Nockalm \u2013 Eisentalh\u00f6he","cam":{"id":970,"name":"Nockalmstrasse","latitude":46.929996,"longitude":13.757426,"zeroDirection":177,"viewAngle":360,"iconUrl":"https:\/\/static.panomax.com\/img\/panomax\/icon.png","mapMarkerGravity":"middle-center","nightVision":false}},"1330":{"id":1330,"name":"Panoramabahn Gipfel","cam":{"id":971,"name":"Panoramabahn Gipfel","latitude":46.916831,"longitude":13.864841,"zeroDirection":113,"viewAngle":360,"iconUrl":"https:\/\/static.panomax.com\/img\/panomax\/icon.png","mapMarkerGravity":"middle-center","nightVision":false}},"1344":{"id":1344,"name":"Kriegerhorn Lech Bergbahnen","cam":{"id":982,"name":"Lech Bergbahnen Kriegerhorn","latitude":47.215274,"longitude":10.118829,"zeroDirection":100,"viewAngle":360,"iconUrl":"https:\/\/static.panomax.com\/img\/panomax\/icon.png","mapMarkerGravity":"middle-center","nightVision":true}},"1345":{"id":1345,"name":"Hotel Herrschaftstaverne","cam":{"id":983,"name":"Hotel Herrschaftstaverne","latitude":47.410784,"longitude":13.768266,"zeroDirection":310,"viewAngle":360,"iconUrl":"https:\/\/static.panomax.com\/img\/panomax\/icon.png","mapMarkerGravity":"middle-center","nightVision":false}},"1349":{"id":1349,"name":"Torgnon Chantorne Skiarea","cam":{"id":987,"name":"Torgnon Chantorne","latitude":45.809744,"longitude":7.555657,"zeroDirection":74,"viewAngle":360,"iconUrl":"https:\/\/static.panomax.com\/img\/panomax\/icon.png","mapMarkerGravity":"middle-center","nightVision":false}},"1369":{"id":1369,"name":"MS EUROPA","cam":{"id":1007,"name":"MS EUROPA","latitude":53.8475,"longitude":8.946111,"zeroDirection":261,"viewAngle":205,"tourCam":true,"iconUrl":"https:\/\/static.panomax.com\/cams\/resources\/1007\/default\/cam_icon.png","mapMarkerGravity":"bottom-center","nightVision":false,"vesselPictureFile":"https:\/\/static.panomax.com\/cams\/resources\/1007\/default\/vessel_picture.jpg"}},"1386":{"id":1386,"name":"Campiglio - Pradalago","cam":{"id":1023,"name":"Pradalago","latitude":46.247383,"longitude":10.81288,"zeroDirection":134,"viewAngle":360,"iconUrl":"https:\/\/static.panomax.com\/img\/panomax\/icon.png","mapMarkerGravity":"middle-center","nightVision":true}},"1389":{"id":1389,"name":"Waging","cam":{"id":1026,"name":"Waging","latitude":47.948189,"longitude":12.731782,"zeroDirection":99,"viewAngle":220,"iconUrl":"https:\/\/static.panomax.com\/img\/panomax\/icon.png","mapMarkerGravity":"middle-center","nightVision":false}},"1397":{"id":1397,"name":"Rossfeld","cam":{"id":1028,"name":"Rossfeld","latitude":47.626687,"longitude":13.092542,"zeroDirection":328,"viewAngle":360,"iconUrl":"https:\/\/static.panomax.com\/img\/panomax\/icon.png","mapMarkerGravity":"middle-center","nightVision":false}},"1398":{"id":1398,"name":"Santa Caterina Valfurva","cam":{"id":1029,"name":"Santa Caterina Valfurva Sunnyvalley","latitude":46.391323,"longitude":10.480209,"zeroDirection":182,"viewAngle":360,"iconUrl":"https:\/\/static.panomax.com\/img\/panomax\/icon.png","mapMarkerGravity":"middle-center","nightVision":true}},"1409":{"id":1409,"name":"GEFRORENE WAND 3.250 m","cam":{"id":1039,"name":"Hintertux Gefrorene Wand","latitude":47.063668,"longitude":11.679405,"zeroDirection":221,"viewAngle":204,"iconUrl":"https:\/\/static.panomax.com\/img\/panomax\/icon.png","mapMarkerGravity":"middle-center","nightVision":true}},"1417":{"id":1417,"name":"Valgardena Seceda","cam":{"id":1044,"name":"Valgardena Seceda","latitude":46.596719,"longitude":11.724135,"zeroDirection":300,"viewAngle":360,"iconUrl":"https:\/\/static.panomax.com\/img\/panomax\/icon.png","mapMarkerGravity":"middle-center","nightVision":true}},"1438":{"id":1438,"name":"Habersatt","cam":{"id":1063,"name":"Habersatt","latitude":47.391351,"longitude":13.429981,"zeroDirection":162,"viewAngle":180,"iconUrl":"https:\/\/static.panomax.com\/img\/panomax\/icon.png","mapMarkerGravity":"middle-center","nightVision":false}},"1439":{"id":1439,"name":"Bec de Roces","cam":{"id":1064,"name":"Bec de Roces","latitude":46.512385,"longitude":11.864745,"zeroDirection":164,"viewAngle":345,"iconUrl":"https:\/\/static.panomax.com\/img\/panomax\/icon.png","mapMarkerGravity":"middle-center","nightVision":false}},"1440":{"id":1440,"name":"Porta Vescovo","cam":{"id":1065,"name":"Porta Vescovo","latitude":46.472955,"longitude":11.868574,"zeroDirection":277,"viewAngle":275,"iconUrl":"https:\/\/static.panomax.com\/img\/panomax\/icon.png","mapMarkerGravity":"middle-center","nightVision":false}},"1465":{"id":1465,"name":"N\u00fcrnberg Fernsehturm","cam":{"id":1090,"name":"N\u00fcrnberg Fernsehturm","latitude":49.426041,"longitude":11.039278,"zeroDirection":40,"viewAngle":245,"iconUrl":"https:\/\/static.panomax.com\/img\/panomax\/icon.png","mapMarkerGravity":"middle-center","nightVision":false}},"1493":{"id":1493,"name":"Inbal Hotel","cam":{"id":1097,"name":"Inbal Hotel","latitude":31.770698,"longitude":35.221978,"zeroDirection":150,"viewAngle":360,"iconUrl":"https:\/\/static.panomax.com\/img\/panomax\/icon.png","mapMarkerGravity":"middle-center","nightVision":false}},"1499":{"id":1499,"name":"Nesselwang Mittelstation TVB","cam":{"id":1101,"name":"Nesselwang Mittelstation","latitude":47.606922,"longitude":10.497154,"zeroDirection":232,"viewAngle":360,"iconUrl":"https:\/\/static.panomax.com\/img\/panomax\/icon.png","mapMarkerGravity":"middle-center","nightVision":false}},"1500":{"id":1500,"name":"Strolz Lech","cam":{"id":1102,"name":"Strolz Lech","latitude":47.208459,"longitude":10.142066,"zeroDirection":48,"viewAngle":360,"iconUrl":"https:\/\/static.panomax.com\/img\/panomax\/icon.png","mapMarkerGravity":"middle-center","nightVision":false}},"1511":{"id":1511,"name":"Youla","cam":{"id":1104,"name":"Youla","latitude":45.773075,"longitude":6.911288,"zeroDirection":70,"viewAngle":360,"iconUrl":"https:\/\/static.panomax.com\/img\/panomax\/icon.png","mapMarkerGravity":"middle-center","nightVision":false}},"1512":{"id":1512,"name":"Checrouit","cam":{"id":1105,"name":"Checrouit","latitude":45.79139,"longitude":6.947827,"zeroDirection":184,"viewAngle":255,"iconUrl":"https:\/\/static.panomax.com\/img\/panomax\/icon.png","mapMarkerGravity":"middle-center","nightVision":false}},"1515":{"id":1515,"name":"Kongresshaus","cam":{"id":1107,"name":"Kongresshaus","latitude":47.495145,"longitude":11.091774,"zeroDirection":193,"viewAngle":360,"iconUrl":"https:\/\/static.panomax.com\/img\/panomax\/icon.png","mapMarkerGravity":"middle-center","nightVision":false}},"1517":{"id":1517,"name":"Schanze","cam":{"id":1109,"name":"Schanze","latitude":47.479068,"longitude":11.119941,"zeroDirection":347,"viewAngle":250,"iconUrl":"https:\/\/static.panomax.com\/img\/panomax\/icon.png","mapMarkerGravity":"middle-center","nightVision":false}},"1518":{"id":1518,"name":"Rathaus","cam":{"id":1110,"name":"Rathaus","latitude":47.493678,"longitude":11.103995,"zeroDirection":156,"viewAngle":360,"iconUrl":"https:\/\/static.panomax.com\/img\/panomax\/icon.png","mapMarkerGravity":"middle-center","nightVision":false}},"1521":{"id":1521,"name":"L\u00e4rchkogel","cam":{"id":1113,"name":"L\u00e4rchkogel","latitude":47.371546,"longitude":13.713298,"zeroDirection":49,"viewAngle":360,"iconUrl":"https:\/\/static.panomax.com\/img\/panomax\/icon.png","mapMarkerGravity":"middle-center","nightVision":false}},"1553":{"id":1553,"name":"Rifugio Bioch","cam":{"id":1134,"name":"Rifugio Bioch","latitude":46.547184,"longitude":11.90979,"zeroDirection":64,"viewAngle":360,"iconUrl":"https:\/\/static.panomax.com\/img\/panomax\/icon.png","mapMarkerGravity":"middle-center","nightVision":false}},"1557":{"id":1557,"name":"Schneiderkogel","cam":{"id":1138,"name":"Tauplitz Schneiderkogel","latitude":47.599657,"longitude":13.988807,"zeroDirection":173,"viewAngle":360,"iconUrl":"https:\/\/static.panomax.com\/img\/panomax\/icon.png","mapMarkerGravity":"middle-center","nightVision":false}},"1599":{"id":1599,"name":"Festungsruine Hohentwiel","cam":{"id":1170,"name":"Festungsruine Hohentwiel","latitude":47.764656,"longitude":8.819211,"zeroDirection":90.5,"viewAngle":306,"iconUrl":"https:\/\/static.panomax.com\/img\/panomax\/icon.png","mapMarkerGravity":"middle-center","nightVision":true}},"1607":{"id":1607,"name":"S\u00f6llereck","cam":{"id":1177,"name":"S\u00f6llereck","latitude":47.381696,"longitude":10.240771,"zeroDirection":83.5,"viewAngle":360,"iconUrl":"https:\/\/static.panomax.com\/img\/panomax\/icon.png","mapMarkerGravity":"middle-center","nightVision":true}},"1618":{"id":1618,"name":"Gardena Dantercepies","cam":{"id":1186,"name":"Valgardena Dantercepies","latitude":46.553512,"longitude":11.799889,"zeroDirection":183,"viewAngle":345,"iconUrl":"https:\/\/static.panomax.com\/img\/panomax\/icon.png","mapMarkerGravity":"middle-center","nightVision":true}},"1643":{"id":1643,"name":"La Magdeleine","cam":{"id":1209,"name":"La Magdeleine","latitude":45.810732,"longitude":7.619137,"zeroDirection":330,"viewAngle":360,"iconUrl":"https:\/\/static.panomax.com\/img\/panomax\/icon.png","mapMarkerGravity":"middle-center","nightVision":false}},"1647":{"id":1647,"name":"Zwiesel","cam":{"id":1213,"name":"Zwiesel","latitude":49.007287,"longitude":13.218524,"zeroDirection":130,"viewAngle":360,"iconUrl":"https:\/\/static.panomax.com\/img\/panomax\/icon.png","mapMarkerGravity":"middle-center","nightVision":false}},"1648":{"id":1648,"name":"Gmundner Berg","cam":{"id":1214,"name":"Gmundner Berg","latitude":47.910475,"longitude":13.748333,"zeroDirection":160,"viewAngle":240,"iconUrl":"https:\/\/static.panomax.com\/img\/panomax\/icon.png","mapMarkerGravity":"middle-center","nightVision":false}},"1653":{"id":1653,"name":"Valgardena Ciampinoi","cam":{"id":1219,"name":"Valgardena Ciampinoi","latitude":46.539028,"longitude":11.753214,"zeroDirection":194,"viewAngle":360,"iconUrl":"https:\/\/static.panomax.com\/img\/panomax\/icon.png","mapMarkerGravity":"middle-center","nightVision":true}},"1654":{"id":1654,"name":"Scharnitz","cam":{"id":1220,"name":"Scharnitz","latitude":47.380388,"longitude":11.254804,"zeroDirection":357,"viewAngle":250,"iconUrl":"https:\/\/static.panomax.com\/img\/panomax\/icon.png","mapMarkerGravity":"middle-center","nightVision":false}},"1655":{"id":1655,"name":"Airport Innsbruck","cam":{"id":1221,"name":"Airport Innsbruck","latitude":47.25769,"longitude":11.349632,"zeroDirection":28,"viewAngle":360,"iconUrl":"https:\/\/static.panomax.com\/img\/panomax\/icon.png","mapMarkerGravity":"middle-center","nightVision":true}},"1658":{"id":1658,"name":"Bessanese","cam":{"id":1222,"name":"Bessanese","latitude":45.297724,"longitude":7.142729,"zeroDirection":150,"viewAngle":360,"iconUrl":"https:\/\/static.panomax.com\/img\/panomax\/icon.png","mapMarkerGravity":"middle-center","nightVision":false}},"1663":{"id":1663,"name":"Col Raiser","cam":{"id":1226,"name":"Val Gardena Col Raiser","latitude":46.584692,"longitude":11.745181,"zeroDirection":260,"viewAngle":360,"iconUrl":"https:\/\/static.panomax.com\/img\/panomax\/icon.png","mapMarkerGravity":"middle-center","nightVision":true}},"1671":{"id":1671,"name":"Silvretta","cam":{"id":1234,"name":"Silvretta","latitude":46.917949,"longitude":10.09316,"zeroDirection":113,"viewAngle":360,"iconUrl":"https:\/\/static.panomax.com\/img\/panomax\/icon.png","mapMarkerGravity":"middle-center","nightVision":false}},"1682":{"id":1682,"name":"Ostlerh\u00fctte","cam":{"id":1245,"name":"Ostlerh\u00fctte","latitude":47.548656,"longitude":10.551502,"zeroDirection":3,"viewAngle":360,"iconUrl":"https:\/\/static.panomax.com\/img\/panomax\/icon.png","mapMarkerGravity":"middle-center","nightVision":false}},"1696":{"id":1696,"name":"Bec Carre","cam":{"id":1256,"name":"Bec Carre","latitude":45.905617,"longitude":7.67429,"zeroDirection":277,"viewAngle":360,"iconUrl":"https:\/\/static.panomax.com\/img\/panomax\/icon.png","mapMarkerGravity":"middle-center","nightVision":false}},"1708":{"id":1708,"name":"Campiglio - Grost\u00e8","cam":{"id":1267,"name":"Grost\u00e8","latitude":46.215901,"longitude":10.901807,"zeroDirection":321,"viewAngle":360,"iconUrl":"https:\/\/static.panomax.com\/img\/panomax\/icon.png","mapMarkerGravity":"middle-center","nightVision":false}},"1713":{"id":1713,"name":"Ble\u00dfberg","cam":{"id":1271,"name":"Ble\u00dfberg","latitude":50.445918,"longitude":11.00503,"zeroDirection":280,"viewAngle":360,"iconUrl":"https:\/\/static.panomax.com\/img\/panomax\/icon.png","mapMarkerGravity":"middle-center","nightVision":false}},"1715":{"id":1715,"name":"Schafbergbahn Anlegesteg","cam":{"id":1272,"name":"Schafbergbahn Anlegesteg","latitude":47.738929,"longitude":13.440162,"zeroDirection":217,"viewAngle":360,"iconUrl":"https:\/\/static.panomax.com\/img\/panomax\/icon.png","mapMarkerGravity":"middle-center","nightVision":false}},"1716":{"id":1716,"name":"L\u00fcnersee","cam":{"id":1273,"name":"L\u00fcnersee","latitude":47.059581,"longitude":9.754319,"zeroDirection":90,"viewAngle":360,"iconUrl":"https:\/\/static.panomax.com\/img\/panomax\/icon.png","mapMarkerGravity":"middle-center","nightVision":false}},"1717":{"id":1717,"name":"Seeg","cam":{"id":1274,"name":"Seeg","latitude":47.650096,"longitude":10.606656,"zeroDirection":99,"viewAngle":360,"iconUrl":"https:\/\/static.panomax.com\/img\/panomax\/icon.png","mapMarkerGravity":"middle-center","nightVision":false}},"1719":{"id":1719,"name":"Oberissalm","cam":{"id":1276,"name":"Oberissalm","latitude":47.095107,"longitude":11.194268,"zeroDirection":305,"viewAngle":360,"iconUrl":"https:\/\/static.panomax.com\/img\/panomax\/icon.png","mapMarkerGravity":"middle-center","nightVision":false}},"1721":{"id":1721,"name":"Postalm","cam":{"id":1278,"name":"Postalm","latitude":47.661953,"longitude":13.433407,"zeroDirection":55,"viewAngle":360,"iconUrl":"https:\/\/static.panomax.com\/img\/panomax\/icon.png","mapMarkerGravity":"middle-center","nightVision":false}},"1741":{"id":1741,"name":"Schanze","cam":{"id":1292,"name":"Schanze","latitude":47.322685,"longitude":11.175439,"zeroDirection":46,"viewAngle":360,"iconUrl":"https:\/\/static.panomax.com\/img\/panomax\/icon.png","mapMarkerGravity":"middle-center","nightVision":false}},"1742":{"id":1742,"name":"Pordoi","cam":{"id":1293,"name":"Pordoi","latitude":46.477902,"longitude":11.817875,"zeroDirection":343,"viewAngle":200,"iconUrl":"https:\/\/static.panomax.com\/img\/panomax\/icon.png","mapMarkerGravity":"middle-center","nightVision":false}},"1752":{"id":1752,"name":"Fieberbrunn L\u00e4rchfilzkogel","cam":{"id":1302,"name":"Fieberbrunn - L\u00e4rchfilzkogel","latitude":47.443985,"longitude":12.548503,"zeroDirection":161,"viewAngle":252,"iconUrl":"https:\/\/static.panomax.com\/img\/panomax\/icon.png","mapMarkerGravity":"middle-center","nightVision":false}},"1754":{"id":1754,"name":"Saalbach Zw\u00f6lferkogel","cam":{"id":1304,"name":"Saalbach - Zw\u00f6lferkogel","latitude":47.360578,"longitude":12.569346,"zeroDirection":72,"viewAngle":360,"iconUrl":"https:\/\/static.panomax.com\/img\/panomax\/icon.png","mapMarkerGravity":"middle-center","nightVision":true}},"1755":{"id":1755,"name":"Saalbach Wildenkarkogel","cam":{"id":1305,"name":"Saalbach - Wildenkarkogel","latitude":47.401087,"longitude":12.68586,"zeroDirection":5,"viewAngle":360,"iconUrl":"https:\/\/static.panomax.com\/img\/panomax\/icon.png","mapMarkerGravity":"middle-center","nightVision":false}},"1756":{"id":1756,"name":"Saalbach Schattberg X-Press","cam":{"id":1306,"name":"Saalbach - Schattberg X-Press","latitude":47.367918,"longitude":12.638353,"zeroDirection":213,"viewAngle":254,"iconUrl":"https:\/\/static.panomax.com\/img\/panomax\/icon.png","mapMarkerGravity":"middle-center","nightVision":true}},"1774":{"id":1774,"name":"Chamois","cam":{"id":1319,"name":"Chamois","latitude":45.851953,"longitude":7.644592,"zeroDirection":317,"viewAngle":360,"iconUrl":"https:\/\/static.panomax.com\/img\/panomax\/icon.png","mapMarkerGravity":"middle-center","nightVision":false}},"1791":{"id":1791,"name":"R\u00e4tikonbahn Bergstation","cam":{"id":1335,"name":"R\u00e4tikonbahn Bergstation","latitude":47.060834,"longitude":9.834562,"zeroDirection":190,"viewAngle":360,"iconUrl":"https:\/\/static.panomax.com\/img\/panomax\/icon.png","mapMarkerGravity":"middle-center","nightVision":false}},"1801":{"id":1801,"name":"Canazei","cam":{"id":1343,"name":"Canazei","latitude":46.474741,"longitude":11.801875,"zeroDirection":308.5,"viewAngle":360,"iconUrl":"https:\/\/static.panomax.com\/img\/panomax\/icon.png","mapMarkerGravity":"middle-center","nightVision":true}},"1808":{"id":1808,"name":"National Control Centre","cam":{"id":1346,"name":"National Control Centre","latitude":55.987926,"longitude":-3.402482,"zeroDirection":20,"viewAngle":165,"iconUrl":"https:\/\/static.panomax.com\/img\/panomax\/icon.png","mapMarkerGravity":"middle-center","nightVision":false}},"1831":{"id":1831,"name":"Madesimo","cam":{"id":1365,"name":"Madesimo","latitude":46.436484,"longitude":9.349194,"zeroDirection":51,"viewAngle":360,"iconUrl":"https:\/\/static.panomax.com\/img\/panomax\/icon.png","mapMarkerGravity":"middle-center","nightVision":false}},"1832":{"id":1832,"name":"Panzer \u0026 Braun Tiefbau GmbH in Sonthofen","cam":{"id":1366,"name":"Sonthofen - Panzer \u0026 Braun Tiefbau GmbH","latitude":47.529494,"longitude":10.262813,"zeroDirection":27,"viewAngle":360,"iconUrl":"https:\/\/static.panomax.com\/img\/panomax\/icon.png","mapMarkerGravity":"middle-center","nightVision":false}},"1834":{"id":1834,"name":"Reith bei Seefeld","cam":{"id":1368,"name":"Reith bei Seefeld","latitude":47.299208,"longitude":11.203056,"zeroDirection":98,"viewAngle":360,"iconUrl":"https:\/\/static.panomax.com\/img\/panomax\/icon.png","mapMarkerGravity":"middle-center","nightVision":false}},"1852":{"id":1852,"name":"Citta dei Sassi","cam":{"id":1382,"name":"Valgardena Citta dei Sassi","latitude":46.518099,"longitude":11.751683,"zeroDirection":130,"viewAngle":360,"iconUrl":"https:\/\/static.panomax.com\/img\/panomax\/icon.png","mapMarkerGravity":"middle-center","nightVision":true}},"1853":{"id":1853,"name":"Catinaccio","cam":{"id":1383,"name":"Catinaccio","latitude":46.433369,"longitude":11.655079,"zeroDirection":170,"viewAngle":360,"iconUrl":"https:\/\/static.panomax.com\/img\/panomax\/icon.png","mapMarkerGravity":"middle-center","nightVision":false}},"1856":{"id":1856,"name":"Das Marienh\u00f6h","cam":{"id":1386,"name":"Langweiler Marienhoeh","latitude":49.782574,"longitude":7.184328,"zeroDirection":102,"viewAngle":100,"iconUrl":"https:\/\/static.panomax.com\/img\/panomax\/icon.png","mapMarkerGravity":"middle-center","nightVision":true}},"1859":{"id":1859,"name":"Seiser Alm","cam":{"id":1389,"name":"Seiser Alm","latitude":46.54243,"longitude":11.617214,"zeroDirection":159,"viewAngle":255,"iconUrl":"https:\/\/static.panomax.com\/img\/panomax\/icon.png","mapMarkerGravity":"middle-center","nightVision":false}},"1860":{"id":1860,"name":"Barzio - Piani di Bobbio","cam":{"id":1390,"name":"Barzio - Piani di Bobbio","latitude":45.955317,"longitude":9.491343,"zeroDirection":57,"viewAngle":360,"iconUrl":"https:\/\/static.panomax.com\/img\/panomax\/icon.png","mapMarkerGravity":"middle-center","nightVision":true}},"1863":{"id":1863,"name":"Col Rodella","cam":{"id":1395,"name":"Col Rodella","latitude":46.497065,"longitude":11.751434,"zeroDirection":41,"viewAngle":287,"iconUrl":"https:\/\/static.panomax.com\/img\/panomax\/icon.png","mapMarkerGravity":"middle-center","nightVision":false}},"1909":{"id":1909,"name":"Reinswald Pichlberg","cam":{"id":1426,"name":"Reinswald Pichlberg","latitude":46.694141,"longitude":11.440992,"zeroDirection":80,"viewAngle":360,"iconUrl":"https:\/\/static.panomax.com\/img\/panomax\/icon.png","mapMarkerGravity":"middle-center","nightVision":false}},"1928":{"id":1928,"name":"Penzenstein","cam":{"id":1438,"name":"Penzenstein","latitude":48.505747,"longitude":13.742525,"zeroDirection":234,"viewAngle":180,"iconUrl":"https:\/\/static.panomax.com\/img\/panomax\/icon.png","mapMarkerGravity":"middle-center","nightVision":false}},"1944":{"id":1944,"name":"Skyway","cam":{"id":1437,"name":"Skyway","latitude":45.845686,"longitude":6.932033,"zeroDirection":149.5,"viewAngle":340,"iconUrl":"https:\/\/static.panomax.com\/img\/panomax\/icon.png","mapMarkerGravity":"middle-center","nightVision":true}},"1945":{"id":1945,"name":"Moritzino","cam":{"id":1454,"name":"Moritzino","latitude":46.565197,"longitude":11.906595,"zeroDirection":194,"viewAngle":360,"iconUrl":"https:\/\/static.panomax.com\/img\/panomax\/icon.png","mapMarkerGravity":"middle-center","nightVision":true}},"1946":{"id":1946,"name":"Buffaure","cam":{"id":1455,"name":"Buffaure","latitude":46.431611,"longitude":11.722901,"zeroDirection":247,"viewAngle":360,"iconUrl":"https:\/\/static.panomax.com\/img\/panomax\/icon.png","mapMarkerGravity":"middle-center","nightVision":false}},"1957":{"id":1957,"name":"rastower","cam":{"id":1460,"name":"rastower","latitude":46.650473,"longitude":11.350891,"zeroDirection":70,"viewAngle":280,"iconUrl":"https:\/\/static.panomax.com\/img\/panomax\/icon.png","mapMarkerGravity":"middle-center","nightVision":false}},"1967":{"id":1967,"name":"Hotel Wiesenhof","cam":{"id":1465,"name":"Hotel Wiesenhof","latitude":47.438272,"longitude":11.700091,"zeroDirection":170,"viewAngle":360,"iconUrl":"https:\/\/static.panomax.com\/img\/panomax\/icon.png","mapMarkerGravity":"middle-center","nightVision":false}},"1968":{"id":1968,"name":"Hotel Alpinresort","cam":{"id":1466,"name":"Hotel Alpinresort","latitude":47.390195,"longitude":12.63747,"zeroDirection":90,"viewAngle":360,"iconUrl":"https:\/\/static.panomax.com\/img\/panomax\/icon.png","mapMarkerGravity":"middle-center","nightVision":false}},"2008":{"id":2008,"name":"Widdersteinh\u00fctte","cam":{"id":1496,"name":"Widdersteinh\u00fctte","latitude":47.27817,"longitude":10.137137,"zeroDirection":254,"viewAngle":315,"iconUrl":"https:\/\/static.panomax.com\/img\/panomax\/icon.png","mapMarkerGravity":"middle-center","nightVision":false}},"2027":{"id":2027,"name":"Berghotel L\u00e4mmerhof","cam":{"id":1510,"name":"Berghotel L\u00e4mmerhof","latitude":47.497267,"longitude":13.374015,"zeroDirection":8,"viewAngle":360,"iconUrl":"https:\/\/static.panomax.com\/img\/panomax\/icon.png","mapMarkerGravity":"middle-center","nightVision":false}},"2035":{"id":2035,"name":"LOAN AAA WebCam","cam":{"id":1518,"name":"Flugplatz Wiener Neustadt","latitude":47.842314,"longitude":16.257328,"zeroDirection":22,"viewAngle":360,"iconUrl":"https:\/\/static.panomax.com\/img\/panomax\/icon.png","mapMarkerGravity":"middle-center","nightVision":false}},"2080":{"id":2080,"name":"Strobl","cam":{"id":1554,"name":"Strobl","latitude":47.718709,"longitude":13.481921,"zeroDirection":359,"viewAngle":360,"iconUrl":"https:\/\/static.panomax.com\/img\/panomax\/icon.png","mapMarkerGravity":"middle-center","nightVision":true}},"2085":{"id":2085,"name":"MS EUROPA 2","cam":{"id":1555,"name":"MS EUROPA 2","latitude":44.868889,"longitude":-0.540833,"zeroDirection":200,"viewAngle":294,"tourCam":true,"iconUrl":"https:\/\/static.panomax.com\/cams\/resources\/1555\/default\/cam_icon.png","mapMarkerGravity":"bottom-center","nightVision":false}},"2088":{"id":2088,"name":"Reinswald Sattele","cam":{"id":1558,"name":"Reinswald Sattele","latitude":46.700279,"longitude":11.456262,"zeroDirection":174.7,"viewAngle":360,"iconUrl":"https:\/\/static.panomax.com\/img\/panomax\/icon.png","mapMarkerGravity":"middle-center","nightVision":false}},"2089":{"id":2089,"name":"Reinswald Sunnolm","cam":{"id":1559,"name":"Reinswald Sunnolm","latitude":46.687892,"longitude":11.433514,"zeroDirection":170,"viewAngle":360,"iconUrl":"https:\/\/static.panomax.com\/img\/panomax\/icon.png","mapMarkerGravity":"middle-center","nightVision":false}},"2098":{"id":2098,"name":"Laber","cam":{"id":1566,"name":"Laber","latitude":47.586123,"longitude":11.103159,"zeroDirection":79,"viewAngle":300,"iconUrl":"https:\/\/static.panomax.com\/img\/panomax\/icon.png","mapMarkerGravity":"middle-center","nightVision":false}},"2101":{"id":2101,"name":"Wintersportarena Liebenau","cam":{"id":1569,"name":"Wintersportarena Liebenau","latitude":48.532416,"longitude":14.803395,"zeroDirection":25,"viewAngle":360,"iconUrl":"https:\/\/static.panomax.com\/img\/panomax\/icon.png","mapMarkerGravity":"middle-center","nightVision":false}},"2104":{"id":2104,"name":"Salvenberg","cam":{"id":1570,"name":"Salvenberg","latitude":47.441543,"longitude":12.209432,"zeroDirection":163,"viewAngle":185,"iconUrl":"https:\/\/static.panomax.com\/img\/panomax\/icon.png","mapMarkerGravity":"middle-center","nightVision":false}},"2106":{"id":2106,"name":"Astberg","cam":{"id":1571,"name":"Going Astberg","latitude":47.5009,"longitude":12.322364,"zeroDirection":55,"viewAngle":275,"iconUrl":"https:\/\/static.panomax.com\/img\/panomax\/icon.png","mapMarkerGravity":"middle-center","nightVision":true}},"2118":{"id":2118,"name":"Zuckerhut","cam":{"id":1583,"name":"Zuckerhut - Sugarloaf Mountain","latitude":-22.949717,"longitude":-43.156591,"zeroDirection":325,"viewAngle":300,"iconUrl":"https:\/\/static.panomax.com\/img\/panomax\/icon.png","mapMarkerGravity":"middle-center","nightVision":true}},"2121":{"id":2121,"name":"Mast","cam":{"id":1586,"name":"Stuben Mast","latitude":47.137738,"longitude":10.155081,"zeroDirection":137,"viewAngle":260,"iconUrl":"https:\/\/static.panomax.com\/img\/panomax\/icon.png","mapMarkerGravity":"middle-center","nightVision":false}},"2128":{"id":2128,"name":"Sambergerhof","cam":{"id":1593,"name":"Sambergerhof","latitude":46.64288,"longitude":11.521032,"zeroDirection":130,"viewAngle":100,"iconUrl":"https:\/\/static.panomax.com\/img\/panomax\/icon.png","mapMarkerGravity":"middle-center","nightVision":true}},"2145":{"id":2145,"name":"Rosskopf - Zauchensee.com","cam":{"id":1599,"name":"Rosskopf","latitude":47.294523,"longitude":13.453264,"zeroDirection":110,"viewAngle":225,"iconUrl":"https:\/\/static.panomax.com\/img\/panomax\/icon.png","mapMarkerGravity":"middle-center","nightVision":false}},"2176":{"id":2176,"name":"Col dei Baldi","cam":{"id":1620,"name":"Col dei Baldi","latitude":46.415552,"longitude":12.067337,"zeroDirection":126,"viewAngle":360,"iconUrl":"https:\/\/static.panomax.com\/img\/panomax\/icon.png","mapMarkerGravity":"middle-center","nightVision":false}},"2183":{"id":2183,"name":"Ceresole Reale","cam":{"id":1624,"name":"Ceresole Reale","latitude":45.463624,"longitude":7.132484,"zeroDirection":162,"viewAngle":360,"iconUrl":"https:\/\/static.panomax.com\/img\/panomax\/icon.png","mapMarkerGravity":"middle-center","nightVision":false}},"2189":{"id":2189,"name":"Livigno Crap","cam":{"id":1628,"name":"Livigno Crap","latitude":46.553396,"longitude":10.158793,"zeroDirection":233,"viewAngle":360,"iconUrl":"https:\/\/static.panomax.com\/img\/panomax\/icon.png","mapMarkerGravity":"middle-center","nightVision":false}},"2190":{"id":2190,"name":"Fertazza","cam":{"id":1629,"name":"Fertazza","latitude":46.422626,"longitude":12.048512,"zeroDirection":175,"viewAngle":360,"iconUrl":"https:\/\/static.panomax.com\/img\/panomax\/icon.png","mapMarkerGravity":"middle-center","nightVision":false}},"2204":{"id":2204,"name":"Andalo - Paganella","cam":{"id":1634,"name":"Paganella","latitude":46.14275,"longitude":11.036763,"zeroDirection":201,"viewAngle":270,"iconUrl":"https:\/\/static.panomax.com\/img\/panomax\/icon.png","mapMarkerGravity":"middle-center","nightVision":true}},"2211":{"id":2211,"name":"Wildkogel Arena - Wildkogel Bergstation","cam":{"id":1641,"name":"Wildkogel Arena - Wildkogel Bergstation","latitude":47.280534,"longitude":12.280884,"zeroDirection":75,"viewAngle":360,"iconUrl":"https:\/\/static.panomax.com\/img\/panomax\/icon.png","mapMarkerGravity":"middle-center","nightVision":true}},"2214":{"id":2214,"name":"Bad Goisern","cam":{"id":1644,"name":"Bad Goisern","latitude":47.63967,"longitude":13.619704,"zeroDirection":132,"viewAngle":360,"iconUrl":"https:\/\/static.panomax.com\/img\/panomax\/icon.png","mapMarkerGravity":"middle-center","nightVision":false}},"2224":{"id":2224,"name":"Tuikku","cam":{"id":1651,"name":"Tuikku","latitude":67.791082,"longitude":24.846671,"zeroDirection":270,"viewAngle":100,"iconUrl":"https:\/\/static.panomax.com\/img\/panomax\/icon.png","mapMarkerGravity":"middle-center","nightVision":true}},"2226":{"id":2226,"name":"Monte Bondone - Vason","cam":{"id":1653,"name":"Bondone","latitude":46.038635,"longitude":11.059038,"zeroDirection":324,"viewAngle":360,"iconUrl":"https:\/\/static.panomax.com\/img\/panomax\/icon.png","mapMarkerGravity":"middle-center","nightVision":false}},"2227":{"id":2227,"name":"Folgarida","cam":{"id":1654,"name":"Folgarida","latitude":46.275479,"longitude":10.82742,"zeroDirection":155,"viewAngle":360,"iconUrl":"https:\/\/static.panomax.com\/img\/panomax\/icon.png","mapMarkerGravity":"middle-center","nightVision":false}},"2231":{"id":2231,"name":"Faistenau","cam":{"id":1657,"name":"Faistenau","latitude":47.777996,"longitude":13.233101,"zeroDirection":115,"viewAngle":225,"iconUrl":"https:\/\/static.panomax.com\/img\/panomax\/icon.png","mapMarkerGravity":"middle-center","nightVision":false}},"2250":{"id":2250,"name":"Wasserwerk","cam":{"id":1668,"name":"Wasserwerk","latitude":47.389864,"longitude":13.462331,"zeroDirection":165,"viewAngle":100,"iconUrl":"https:\/\/static.panomax.com\/img\/panomax\/icon.png","mapMarkerGravity":"middle-center","nightVision":true}},"2252":{"id":2252,"name":"Radst\u00e4dter H\u00fctte am Rossbrand","cam":{"id":1670,"name":"Radst\u00e4dter H\u00fctte am Rossbrand","latitude":47.415348,"longitude":13.479073,"zeroDirection":310,"viewAngle":360,"iconUrl":"https:\/\/static.panomax.com\/img\/panomax\/icon.png","mapMarkerGravity":"middle-center","nightVision":true}},"2256":{"id":2256,"name":"ciampac","cam":{"id":1674,"name":"Ciampac","latitude":46.439158,"longitude":11.764321,"zeroDirection":224,"viewAngle":360,"iconUrl":"https:\/\/static.panomax.com\/img\/panomax\/icon.png","mapMarkerGravity":"middle-center","nightVision":false}},"2257":{"id":2257,"name":"Katrin Bergbahn","cam":{"id":1675,"name":"Katrin Sendemast","latitude":47.689782,"longitude":13.580091,"zeroDirection":85,"viewAngle":318,"iconUrl":"https:\/\/static.panomax.com\/img\/panomax\/icon.png","mapMarkerGravity":"middle-center","nightVision":true}},"2267":{"id":2267,"name":"Pejo 3000","cam":{"id":1684,"name":"Pejo3000","latitude":46.383571,"longitude":10.630862,"zeroDirection":38,"viewAngle":360,"iconUrl":"https:\/\/static.panomax.com\/img\/panomax\/icon.png","mapMarkerGravity":"middle-center","nightVision":false}},"2278":{"id":2278,"name":"Pinzolo","cam":{"id":1694,"name":"Pinzolo","latitude":46.167423,"longitude":10.80639,"zeroDirection":320,"viewAngle":360,"iconUrl":"https:\/\/static.panomax.com\/img\/panomax\/icon.png","mapMarkerGravity":"middle-center","nightVision":false}},"2285":{"id":2285,"name":"Bergbahnen M\u00e4nnlichen 2","cam":{"id":1699,"name":"Bergbahnen M\u00e4nnlichen 2","latitude":46.611097,"longitude":7.943075,"zeroDirection":359,"viewAngle":360,"iconUrl":"https:\/\/static.panomax.com\/img\/panomax\/icon.png","mapMarkerGravity":"middle-center","nightVision":false}},"2307":{"id":2307,"name":"Kirche St. Peter und Paul Mittenwald","cam":{"id":1716,"name":"Mittenwald Kirche St. Peter und Paul","latitude":47.442139,"longitude":11.260396,"zeroDirection":180,"viewAngle":100,"iconUrl":"https:\/\/static.panomax.com\/img\/panomax\/icon.png","mapMarkerGravity":"middle-center","nightVision":true}},"2309":{"id":2309,"name":"H\u00f6rnlebahn","cam":{"id":1718,"name":"H\u00f6rnlebahn","latitude":47.644377,"longitude":11.054922,"zeroDirection":204,"viewAngle":360,"iconUrl":"https:\/\/static.panomax.com\/img\/panomax\/icon.png","mapMarkerGravity":"middle-center","nightVision":false}},"2311":{"id":2311,"name":"Kolbensattel","cam":{"id":1720,"name":"Kolbensattel","latitude":47.590456,"longitude":11.02677,"zeroDirection":79,"viewAngle":160,"iconUrl":"https:\/\/static.panomax.com\/img\/panomax\/icon.png","mapMarkerGravity":"middle-center","nightVision":false}},"2312":{"id":2312,"name":"Das Blaue Land - Murnau","cam":{"id":1721,"name":"Das Blaue Land - Murnau","latitude":47.677524,"longitude":11.198683,"zeroDirection":183,"viewAngle":100,"iconUrl":"https:\/\/static.panomax.com\/img\/panomax\/icon.png","mapMarkerGravity":"middle-center","nightVision":true}},"2315":{"id":2315,"name":"Sassolungo","cam":{"id":1723,"name":"Valgardena Sassolungo","latitude":46.522833,"longitude":11.769163,"zeroDirection":265,"viewAngle":100,"iconUrl":"https:\/\/static.panomax.com\/img\/panomax\/icon.png","mapMarkerGravity":"middle-center","nightVision":true}},"2344":{"id":2344,"name":"Landsberg am Lech","cam":{"id":1731,"name":"Landsberg am Lech","latitude":48.048469,"longitude":10.877803,"zeroDirection":285,"viewAngle":100,"iconUrl":"https:\/\/static.panomax.com\/img\/panomax\/icon.png","mapMarkerGravity":"middle-center","nightVision":true}},"2347":{"id":2347,"name":"Wildkogel Arena - Braunkogel","cam":{"id":1734,"name":"Wildkogel Arena - Gensbichl Berg","latitude":47.286272,"longitude":12.266029,"zeroDirection":341,"viewAngle":360,"iconUrl":"https:\/\/static.panomax.com\/img\/panomax\/icon.png","mapMarkerGravity":"middle-center","nightVision":false}},"2359":{"id":2359,"name":"Airport Wien","cam":{"id":1745,"name":"Airport Wien - neue Position","latitude":48.122314,"longitude":16.559998,"viewAngle":360,"iconUrl":"https:\/\/static.panomax.com\/img\/panomax\/icon.png","mapMarkerGravity":"middle-center","nightVision":false}},"2367":{"id":2367,"name":"Folgaria Salizzona","cam":{"id":1749,"name":"Folgaria Salizzona","latitude":45.886677,"longitude":11.200632,"zeroDirection":225.5,"viewAngle":270,"iconUrl":"https:\/\/static.panomax.com\/img\/panomax\/icon.png","mapMarkerGravity":"middle-center","nightVision":false}},"2374":{"id":2374,"name":"Gasthof Zimmereben","cam":{"id":1752,"name":"Mayrhofen Zillertal - Gasthof Zimmereben","latitude":47.173527,"longitude":11.85915,"zeroDirection":100,"viewAngle":210,"iconUrl":"https:\/\/static.panomax.com\/img\/panomax\/icon.png","mapMarkerGravity":"middle-center","nightVision":true}},"2375":{"id":2375,"name":"Mayrhofen Kumbichl","cam":{"id":1753,"name":"Mayrhofen Kumbichl","latitude":47.15606,"longitude":11.862222,"zeroDirection":353,"viewAngle":85,"iconUrl":"https:\/\/static.panomax.com\/img\/panomax\/icon.png","mapMarkerGravity":"middle-center","nightVision":true}},"2382":{"id":2382,"name":"L\u00e4ngenfeld Mast","cam":{"id":1759,"name":"L\u00e4ngenfeld Mast","latitude":47.068617,"longitude":10.960494,"zeroDirection":75,"viewAngle":280,"iconUrl":"https:\/\/static.panomax.com\/img\/panomax\/icon.png","mapMarkerGravity":"middle-center","nightVision":false}},"2384":{"id":2384,"name":"Untergriesbach","cam":{"id":1761,"name":"Untergriesbach","latitude":48.529349,"longitude":13.648778,"zeroDirection":68,"viewAngle":160,"iconUrl":"https:\/\/static.panomax.com\/img\/panomax\/icon.png","mapMarkerGravity":"middle-center","nightVision":false}},"2389":{"id":2389,"name":"Kaiserbahn Winter","cam":{"id":1766,"name":"K\u00fchtai - Kaiserbahn","latitude":47.226181,"longitude":11.010953,"zeroDirection":272,"viewAngle":360,"iconUrl":"https:\/\/static.panomax.com\/img\/panomax\/icon.png","mapMarkerGravity":"middle-center","nightVision":true}},"2392":{"id":2392,"name":"Wiesbergbahn Winter","cam":{"id":1769,"name":"K\u00fchtai - Wiesbergbahn","latitude":47.209638,"longitude":11.029519,"zeroDirection":255,"viewAngle":360,"iconUrl":"https:\/\/static.panomax.com\/img\/panomax\/icon.png","mapMarkerGravity":"middle-center","nightVision":true}},"2402":{"id":2402,"name":"Hochanger - Loser Fenster","cam":{"id":1774,"name":"Hochanger - Loser Fenster","latitude":47.66417,"longitude":13.781492,"zeroDirection":186.5,"viewAngle":360,"iconUrl":"https:\/\/static.panomax.com\/img\/panomax\/icon.png","mapMarkerGravity":"middle-center","nightVision":false}},"2404":{"id":2404,"name":"Loser Alm","cam":{"id":1776,"name":"Loser Alm","latitude":47.660579,"longitude":13.786368,"zeroDirection":164,"viewAngle":360,"iconUrl":"https:\/\/static.panomax.com\/img\/panomax\/icon.png","mapMarkerGravity":"middle-center","nightVision":true}},"2423":{"id":2423,"name":"Nesselwang - Sportheim B\u00f6ck","cam":{"id":1791,"name":"Nesselwang - Sportheim B\u00f6ck","latitude":47.59831,"longitude":10.502141,"zeroDirection":118,"viewAngle":100,"iconUrl":"https:\/\/static.panomax.com\/img\/panomax\/icon.png","mapMarkerGravity":"middle-center","nightVision":true}},"2427":{"id":2427,"name":"Drachselried","cam":{"id":1795,"name":"Drachselsried","latitude":49.102183,"longitude":12.996806,"zeroDirection":75,"viewAngle":100,"iconUrl":"https:\/\/static.panomax.com\/img\/panomax\/icon.png","mapMarkerGravity":"middle-center","nightVision":true}},"2447":{"id":2447,"name":"Lavam\u00fcnd Gemeindeamt","cam":{"id":1806,"name":"Lavam\u00fcnd Gemeindeamt","latitude":46.641211,"longitude":14.94224,"zeroDirection":300,"viewAngle":360,"iconUrl":"https:\/\/static.panomax.com\/img\/panomax\/icon.png","mapMarkerGravity":"middle-center","nightVision":false}},"2459":{"id":2459,"name":"Fuschl Wesenauer - TVB","cam":{"id":1812,"name":"Fuschl Wesenauer","latitude":47.794522,"longitude":13.290866,"zeroDirection":30,"viewAngle":180,"iconUrl":"https:\/\/static.panomax.com\/img\/panomax\/icon.png","mapMarkerGravity":"middle-center","nightVision":false}},"2460":{"id":2460,"name":"Hintersee Sonnberg","cam":{"id":1813,"name":"Hintersee Sonnberg","latitude":47.719629,"longitude":13.291075,"zeroDirection":175,"viewAngle":300,"iconUrl":"https:\/\/static.panomax.com\/img\/panomax\/icon.png","mapMarkerGravity":"middle-center","nightVision":false}},"2481":{"id":2481,"name":"Loser Sandling Jet","cam":{"id":1829,"name":"Loser Sandling Jet","latitude":47.661017,"longitude":13.732698,"zeroDirection":95,"viewAngle":100,"iconUrl":"https:\/\/static.panomax.com\/img\/panomax\/icon.png","mapMarkerGravity":"middle-center","nightVision":true}},"2485":{"id":2485,"name":"Ruined Castle","cam":{"id":1833,"name":"Ruined Castle","latitude":-36.877574,"longitude":147.268539,"zeroDirection":125,"viewAngle":360,"iconUrl":"https:\/\/static.panomax.com\/img\/panomax\/icon.png","mapMarkerGravity":"middle-center","nightVision":false}},"2486":{"id":2486,"name":"Viking Orion","cam":{"id":1834,"name":"Viking Orion","latitude":59.951389,"longitude":-147.08,"zeroDirection":16,"viewAngle":360,"tourCam":true,"iconUrl":"https:\/\/static.panomax.com\/cams\/resources\/1834\/default\/cam_icon.png","mapMarkerGravity":"middle-center","nightVision":false}},"2526":{"id":2526,"name":"Windhaber Gussmagg","cam":{"id":1865,"name":"Stubenberg am See - Windhaber Gussmagg","latitude":47.230995,"longitude":15.789336,"zeroDirection":70,"viewAngle":150,"iconUrl":"https:\/\/static.panomax.com\/img\/panomax\/icon.png","mapMarkerGravity":"middle-center","nightVision":true}},"2532":{"id":2532,"name":"Manderfeld","cam":{"id":1871,"name":"Manderfeld","latitude":50.331777,"longitude":6.334631,"zeroDirection":225,"viewAngle":100,"iconUrl":"https:\/\/static.panomax.com\/img\/panomax\/icon.png","mapMarkerGravity":"middle-center","nightVision":true}},"2538":{"id":2538,"name":"Tannberg Rauter","cam":{"id":1876,"name":"Tannberg","latitude":47.97366,"longitude":13.18791,"zeroDirection":163,"viewAngle":100,"iconUrl":"https:\/\/static.panomax.com\/img\/panomax\/icon.png","mapMarkerGravity":"middle-center","nightVision":false}},"2556":{"id":2556,"name":"Sappada","cam":{"id":1894,"name":"Sappada","latitude":46.561356,"longitude":12.6848,"zeroDirection":160,"viewAngle":360,"iconUrl":"https:\/\/static.panomax.com\/img\/panomax\/icon.png","mapMarkerGravity":"middle-center","nightVision":false}},"2565":{"id":2565,"name":"Ramsau Beach","cam":{"id":1900,"name":"Ramsau Beach","latitude":47.424092,"longitude":13.62356,"zeroDirection":105,"viewAngle":360,"iconUrl":"https:\/\/static.panomax.com\/img\/panomax\/icon.png","mapMarkerGravity":"middle-center","nightVision":false}},"2567":{"id":2567,"name":"Leutasch Rotmoos","cam":{"id":1901,"name":"Leutasch Rotmoos","latitude":47.383124,"longitude":11.077203,"zeroDirection":189,"viewAngle":360,"iconUrl":"https:\/\/static.panomax.com\/img\/panomax\/icon.png","mapMarkerGravity":"middle-center","nightVision":false}},"2575":{"id":2575,"name":"Schafkopf - Sommer","cam":{"id":1435,"name":"Schafkopf","latitude":47.19137,"longitude":11.790784,"zeroDirection":127,"viewAngle":360,"iconUrl":"https:\/\/static.panomax.com\/img\/panomax\/icon.png","mapMarkerGravity":"middle-center","nightVision":false}},"2580":{"id":2580,"name":"Vinea Tirol","cam":{"id":1913,"name":"Vinea Tirol","latitude":46.678217,"longitude":11.165088,"zeroDirection":25,"viewAngle":360,"iconUrl":"https:\/\/static.panomax.com\/img\/panomax\/icon.png","mapMarkerGravity":"middle-center","nightVision":false}},"2595":{"id":2595,"name":"Magliano Alfieri","cam":{"id":1897,"name":"Magliano Alfieri","latitude":44.766793,"longitude":8.066614,"zeroDirection":241,"viewAngle":250,"iconUrl":"https:\/\/static.panomax.com\/img\/panomax\/icon.png","mapMarkerGravity":"middle-center","nightVision":false}},"2599":{"id":2599,"name":"Plose lift","cam":{"id":1929,"name":"Plose lift","latitude":46.694706,"longitude":11.732988,"zeroDirection":147.5,"viewAngle":360,"iconUrl":"https:\/\/static.panomax.com\/img\/panomax\/icon.png","mapMarkerGravity":"middle-center","nightVision":false}},"2606":{"id":2606,"name":"Alp Trida Sattel","cam":{"id":1934,"name":"Alp Trida Sattel","latitude":46.96996,"longitude":10.366263,"zeroDirection":182,"viewAngle":360,"iconUrl":"https:\/\/static.panomax.com\/img\/panomax\/icon.png","mapMarkerGravity":"middle-center","nightVision":false}},"2614":{"id":2614,"name":"Loen Skylift - Hoven","cam":{"id":1941,"name":"Loen Skylift - Hoven","latitude":61.885126,"longitude":6.834065,"zeroDirection":226.5,"viewAngle":360,"iconUrl":"https:\/\/static.panomax.com\/img\/panomax\/icon.png","mapMarkerGravity":"middle-center","nightVision":true}},"2621":{"id":2621,"name":"St. Gilgen","cam":{"id":1945,"name":"St. Gilgen","latitude":47.774068,"longitude":13.352815,"zeroDirection":112,"viewAngle":217,"iconUrl":"https:\/\/static.panomax.com\/img\/panomax\/icon.png","mapMarkerGravity":"middle-center","nightVision":true}},"2624":{"id":2624,"name":"Bad Tatzmannsdorf - Wasserspeicher","cam":{"id":1947,"name":"Bad Tatzmannsdorf - Wasserspeicher","latitude":47.342124,"longitude":16.23923,"zeroDirection":283,"viewAngle":360,"iconUrl":"https:\/\/static.panomax.com\/img\/panomax\/icon.png","mapMarkerGravity":"middle-center","nightVision":false}},"2630":{"id":2630,"name":"Markthalle","cam":{"id":1953,"name":"Markthalle","latitude":47.267462,"longitude":11.38993,"zeroDirection":352,"viewAngle":100,"iconUrl":"https:\/\/static.panomax.com\/img\/panomax\/icon.png","mapMarkerGravity":"middle-center","nightVision":true}},"2651":{"id":2651,"name":"Saalbach Kohlmais","cam":{"id":1970,"name":"Saalbach - Kohlmais","latitude":47.410013,"longitude":12.653306,"zeroDirection":207,"viewAngle":180,"iconUrl":"https:\/\/static.panomax.com\/img\/panomax\/icon.png","mapMarkerGravity":"middle-center","nightVision":false}},"2662":{"id":2662,"name":"Piancavallo Sauc","cam":{"id":1981,"name":"Piancavallo Sauc","latitude":46.097001,"longitude":12.506446,"zeroDirection":137.5,"viewAngle":360,"iconUrl":"https:\/\/static.panomax.com\/img\/panomax\/icon.png","mapMarkerGravity":"middle-center","nightVision":false}},"2665":{"id":2665,"name":"Sella Nevea Gilberti","cam":{"id":1984,"name":"Sella Nevea Gilberti","latitude":46.372414,"longitude":13.462089,"zeroDirection":346,"viewAngle":360,"iconUrl":"https:\/\/static.panomax.com\/img\/panomax\/icon.png","mapMarkerGravity":"middle-center","nightVision":false}},"2668":{"id":2668,"name":"Forni di Sopra","cam":{"id":1987,"name":"Forni di Sopra","latitude":46.449944,"longitude":12.561828,"zeroDirection":170.5,"viewAngle":360,"iconUrl":"https:\/\/static.panomax.com\/img\/panomax\/icon.png","mapMarkerGravity":"middle-center","nightVision":false}},"2669":{"id":2669,"name":"Zoncolan","cam":{"id":1988,"name":"Zoncolan","latitude":46.507217,"longitude":12.932464,"zeroDirection":184,"viewAngle":360,"iconUrl":"https:\/\/static.panomax.com\/img\/panomax\/icon.png","mapMarkerGravity":"middle-center","nightVision":false}},"2679":{"id":2679,"name":"Samnaun Compatsch","cam":{"id":1996,"name":"Samnaun Compatsch","latitude":46.959802,"longitude":10.403171,"zeroDirection":260,"viewAngle":100,"iconUrl":"https:\/\/static.panomax.com\/img\/panomax\/icon.png","mapMarkerGravity":"middle-center","nightVision":true}},"2680":{"id":2680,"name":"Samnaun Dorf","cam":{"id":1997,"name":"Samnaun Dorf","latitude":46.940506,"longitude":10.36037,"zeroDirection":10,"viewAngle":100,"iconUrl":"https:\/\/static.panomax.com\/img\/panomax\/icon.png","mapMarkerGravity":"middle-center","nightVision":true}},"2696":{"id":2696,"name":"Weidachm\u00fchle","cam":{"id":2010,"name":"Weidachm\u00fchle","latitude":47.919989,"longitude":11.421646,"zeroDirection":134,"viewAngle":165,"iconUrl":"https:\/\/static.panomax.com\/img\/panomax\/icon.png","mapMarkerGravity":"middle-center","nightVision":false}},"2709":{"id":2709,"name":"Patscherkofel","cam":{"id":2021,"name":"Patscherkofel","latitude":47.210057,"longitude":11.451477,"zeroDirection":278,"viewAngle":280,"iconUrl":"https:\/\/static.panomax.com\/img\/panomax\/icon.png","mapMarkerGravity":"middle-center","nightVision":true}},"2717":{"id":2717,"name":"Elmauer Alm","cam":{"id":2028,"name":"Elmauer Alm","latitude":47.474516,"longitude":11.187825,"zeroDirection":180,"viewAngle":195,"iconUrl":"https:\/\/static.panomax.com\/img\/panomax\/icon.png","mapMarkerGravity":"middle-center","nightVision":false}},"2738":{"id":2738,"name":"Kronplatz antenna","cam":{"id":2044,"name":"Kronplatz antenna","latitude":46.740016,"longitude":11.959848,"zeroDirection":136,"viewAngle":360,"iconUrl":"https:\/\/static.panomax.com\/img\/panomax\/icon.png","mapMarkerGravity":"middle-center","nightVision":true}},"2744":{"id":2744,"name":"Viking Jupiter","cam":{"id":2046,"name":"Viking Jupiter","latitude":57.889444,"longitude":-5.152778,"viewAngle":360,"tourCam":true,"iconUrl":"https:\/\/static.panomax.com\/cams\/resources\/2046\/default\/cam_icon.png","mapMarkerGravity":"middle-center","nightVision":false}},"2754":{"id":2754,"name":"Pezze","cam":{"id":2052,"name":"Pezze","latitude":46.411817,"longitude":12.044643,"zeroDirection":132,"viewAngle":360,"iconUrl":"https:\/\/static.panomax.com\/img\/panomax\/icon.png","mapMarkerGravity":"middle-center","nightVision":true}},"2755":{"id":2755,"name":"Siriuskogl","cam":{"id":2053,"name":"Siriuskogl","latitude":47.704918,"longitude":13.617591,"zeroDirection":315,"viewAngle":280,"iconUrl":"https:\/\/static.panomax.com\/img\/panomax\/icon.png","mapMarkerGravity":"middle-center","nightVision":false}},"2788":{"id":2788,"name":"Aprica Pian di Gembro","cam":{"id":2080,"name":"Aprica Pian di Gembro","latitude":46.160489,"longitude":10.163126,"zeroDirection":180,"viewAngle":100,"iconUrl":"https:\/\/static.panomax.com\/img\/panomax\/icon.png","mapMarkerGravity":"middle-center","nightVision":true}},"2820":{"id":2820,"name":"Alpspitzbahn Nesselwang Talstation","cam":{"id":2102,"name":"Alpspitzbahn Nesselwang Talstation","latitude":47.618139,"longitude":10.49684,"zeroDirection":150,"viewAngle":100,"iconUrl":"https:\/\/static.panomax.com\/img\/panomax\/icon.png","mapMarkerGravity":"middle-center","nightVision":true}},"2823":{"id":2823,"name":"Vogelschmiede","cam":{"id":2106,"name":"Vogelschmiede","latitude":50.48418,"longitude":9.27526,"zeroDirection":225,"viewAngle":100,"iconUrl":"https:\/\/static.panomax.com\/img\/panomax\/icon.png","mapMarkerGravity":"middle-center","nightVision":true}},"2838":{"id":2838,"name":"Kickelhahn Ilmenau","cam":{"id":2113,"name":"Kickelhahn Ilmenau","latitude":50.665684,"longitude":10.881016,"zeroDirection":54,"viewAngle":360,"iconUrl":"https:\/\/static.panomax.com\/img\/panomax\/icon.png","mapMarkerGravity":"middle-center","nightVision":false}},"2839":{"id":2839,"name":"HX Roald Amundsen","cam":{"id":2114,"name":"MS Roald Amundsen","latitude":58.034444,"longitude":-154.249444,"zeroDirection":118,"viewAngle":360,"tourCam":true,"iconUrl":"https:\/\/static.panomax.com\/cams\/resources\/2114\/default\/cam_icon.png","mapMarkerGravity":"middle-center","nightVision":false}},"2849":{"id":2849,"name":"HANSEATIC nature","cam":{"id":2124,"name":"HANSEATIC nature","latitude":63.751389,"longitude":-35.946389,"zeroDirection":258,"viewAngle":220,"tourCam":true,"iconUrl":"https:\/\/static.panomax.com\/cams\/resources\/2124\/default\/cam_icon.png","mapMarkerGravity":"bottom-center","nightVision":false,"vesselPictureFile":"https:\/\/static.panomax.com\/cams\/resources\/2124\/default\/vessel_picture.jpg"}},"2871":{"id":2871,"name":"Santa Caterina Valfurva Plaghera","cam":{"id":2146,"name":"Santa Caterina Valfurva Plaghera","latitude":46.404416,"longitude":10.482725,"viewAngle":360,"iconUrl":"https:\/\/static.panomax.com\/img\/panomax\/icon.png","mapMarkerGravity":"middle-center","nightVision":false}},"2895":{"id":2895,"name":"HX Fridtjof Nansen","cam":{"id":2167,"name":"MS Fridtjof Nansen","latitude":64.075556,"longitude":-52.269167,"zeroDirection":294,"viewAngle":360,"tourCam":true,"iconUrl":"https:\/\/static.panomax.com\/cams\/resources\/2167\/default\/cam_icon.png","mapMarkerGravity":"middle-center","nightVision":false}},"2912":{"id":2912,"name":"Aprica Baradello","cam":{"id":2182,"name":"Aprica Baradello","latitude":46.136847,"longitude":10.177702,"zeroDirection":310,"viewAngle":100,"iconUrl":"https:\/\/static.panomax.com\/img\/panomax\/icon.png","mapMarkerGravity":"middle-center","nightVision":true}},"2916":{"id":2916,"name":"Sorisole Canto Alto","cam":{"id":2185,"name":"Sorisole Canto Alto","latitude":45.770059,"longitude":9.669926,"zeroDirection":267.5,"viewAngle":360,"iconUrl":"https:\/\/static.panomax.com\/img\/panomax\/icon.png","mapMarkerGravity":"middle-center","nightVision":true}},"2931":{"id":2931,"name":"Gosau COOEE","cam":{"id":2200,"name":"Gosau COOEE","latitude":47.581194,"longitude":13.534284,"zeroDirection":324,"viewAngle":360,"iconUrl":"https:\/\/static.panomax.com\/img\/panomax\/icon.png","mapMarkerGravity":"middle-center","nightVision":false}},"2934":{"id":2934,"name":"Donauschlinge Schl\u00f6gen","cam":{"id":2202,"name":"Donauschlinge Schl\u00f6gen","latitude":48.422693,"longitude":13.876926,"zeroDirection":322,"viewAngle":90,"iconUrl":"https:\/\/static.panomax.com\/img\/panomax\/icon.png","mapMarkerGravity":"middle-center","nightVision":true}},"2948":{"id":2948,"name":"Messe M\u00fcnchen - Messeturm","cam":{"id":2027,"name":"Messeturm M\u00fcnchen","latitude":48.135569,"longitude":11.705632,"zeroDirection":55,"viewAngle":360,"iconUrl":"https:\/\/static.panomax.com\/img\/panomax\/icon.png","mapMarkerGravity":"middle-center","nightVision":true}},"2950":{"id":2950,"name":"Aurinko Golf Naantali","cam":{"id":2212,"name":"Aurinko Golf Naantali","latitude":60.49945,"longitude":22.068745,"zeroDirection":190,"viewAngle":180,"iconUrl":"https:\/\/static.panomax.com\/img\/panomax\/icon.png","mapMarkerGravity":"middle-center","nightVision":false}},"2961":{"id":2961,"name":"HANSEATIC inspiration","cam":{"id":2221,"name":"HANSEATIC inspiration","latitude":58.070556,"longitude":-154.075556,"zeroDirection":179,"viewAngle":220,"tourCam":true,"iconUrl":"https:\/\/static.panomax.com\/cams\/resources\/2221\/default\/cam_icon.png","mapMarkerGravity":"bottom-center","nightVision":false,"vesselPictureFile":"https:\/\/static.panomax.com\/cams\/resources\/2221\/default\/vessel_picture.png"}},"2966":{"id":2966,"name":"Imst-Nassereith","cam":{"id":2226,"name":"Imst-Nassereith","latitude":47.302732,"longitude":10.856975,"zeroDirection":280,"viewAngle":100,"iconUrl":"https:\/\/static.panomax.com\/img\/panomax\/icon.png","mapMarkerGravity":"middle-center","nightVision":true}},"2967":{"id":2967,"name":"Gaisberg Aktiv","cam":{"id":2227,"name":"Sender Gaisberg","latitude":47.805187,"longitude":13.11201,"zeroDirection":205,"viewAngle":283,"iconUrl":"https:\/\/static.panomax.com\/img\/panomax\/icon.png","mapMarkerGravity":"middle-center","nightVision":true}},"3003":{"id":3003,"name":"Marienheide","cam":{"id":2257,"name":"Marienheide","latitude":51.081348,"longitude":7.534962,"zeroDirection":275,"viewAngle":360,"iconUrl":"https:\/\/static.panomax.com\/img\/panomax\/icon.png","mapMarkerGravity":"middle-center","nightVision":false}},"3011":{"id":3011,"name":"Grado","cam":{"id":2265,"name":"Grado","latitude":45.675734,"longitude":13.387412,"zeroDirection":90,"viewAngle":360,"iconUrl":"https:\/\/static.panomax.com\/img\/panomax\/icon.png","mapMarkerGravity":"middle-center","nightVision":false}},"3031":{"id":3031,"name":"Sch\u00f6nleiten - Winter","cam":{"id":1353,"name":"Sch\u00f6nleiten","latitude":47.58085,"longitude":15.225893,"zeroDirection":142,"viewAngle":360,"iconUrl":"https:\/\/static.panomax.com\/img\/panomax\/icon.png","mapMarkerGravity":"middle-center","nightVision":false}},"3038":{"id":3038,"name":"Planetarium Hamburg","cam":{"id":2287,"name":"Planetarium Hamburg","latitude":53.597419,"longitude":10.008956,"zeroDirection":350,"viewAngle":360,"iconUrl":"https:\/\/static.panomax.com\/img\/panomax\/icon.png","mapMarkerGravity":"middle-center","nightVision":true}},"3063":{"id":3063,"name":"Riesneralm Sendemast","cam":{"id":2310,"name":"Riesneralm Sendemast","latitude":47.366765,"longitude":14.090706,"zeroDirection":59,"viewAngle":270,"iconUrl":"https:\/\/static.panomax.com\/img\/panomax\/icon.png","mapMarkerGravity":"middle-center","nightVision":true}},"3080":{"id":3080,"name":"Loischkopf","cam":{"id":2326,"name":"Loischkopf","latitude":47.134742,"longitude":9.74243,"zeroDirection":78,"viewAngle":360,"iconUrl":"https:\/\/static.panomax.com\/img\/panomax\/icon.png","mapMarkerGravity":"middle-center","nightVision":false}},"3119":{"id":3119,"name":"Kappakreuz","cam":{"id":2354,"name":"Tarrenz - Kappakreuz","latitude":47.285998,"longitude":10.789816,"zeroDirection":220,"viewAngle":100,"iconUrl":"https:\/\/static.panomax.com\/img\/panomax\/icon.png","mapMarkerGravity":"middle-center","nightVision":true}},"3128":{"id":3128,"name":"Planneralm","cam":{"id":2363,"name":"Planneralm","latitude":47.404447,"longitude":14.214654,"zeroDirection":212,"viewAngle":360,"iconUrl":"https:\/\/static.panomax.com\/img\/panomax\/icon.png","mapMarkerGravity":"middle-center","nightVision":true}},"3161":{"id":3161,"name":"Arguello","cam":{"id":2391,"name":"Arguello","latitude":44.582747,"longitude":8.110265,"zeroDirection":230,"viewAngle":360,"iconUrl":"https:\/\/static.panomax.com\/img\/panomax\/icon.png","mapMarkerGravity":"middle-center","nightVision":false}},"3167":{"id":3167,"name":"Folgaria - Lavarone","cam":{"id":2395,"name":"Lavarone","latitude":45.954764,"longitude":11.317361,"zeroDirection":300,"viewAngle":360,"iconUrl":"https:\/\/static.panomax.com\/img\/panomax\/icon.png","mapMarkerGravity":"middle-center","nightVision":false}},"3170":{"id":3170,"name":"Feldkirchen Badeseen","cam":{"id":2398,"name":"Feldkirchen Badeseen","latitude":48.326059,"longitude":14.070394,"zeroDirection":40,"viewAngle":360,"iconUrl":"https:\/\/static.panomax.com\/img\/panomax\/icon.png","mapMarkerGravity":"middle-center","nightVision":false}},"3175":{"id":3175,"name":"Umhausen Vivea","cam":{"id":2403,"name":"Umhausen Vivea","latitude":47.144112,"longitude":10.929808,"zeroDirection":231,"viewAngle":250,"iconUrl":"https:\/\/static.panomax.com\/img\/panomax\/icon.png","mapMarkerGravity":"middle-center","nightVision":true}},"3184":{"id":3184,"name":"Pescul","cam":{"id":2411,"name":"Pescul","latitude":46.423557,"longitude":12.046869,"zeroDirection":23,"viewAngle":360,"iconUrl":"https:\/\/static.panomax.com\/img\/panomax\/icon.png","mapMarkerGravity":"middle-center","nightVision":false}},"3190":{"id":3190,"name":"San Domenico","cam":{"id":2416,"name":"San Domenico","latitude":46.263429,"longitude":8.221294,"zeroDirection":328,"viewAngle":360,"iconUrl":"https:\/\/static.panomax.com\/img\/panomax\/icon.png","mapMarkerGravity":"middle-center","nightVision":false}},"3192":{"id":3192,"name":"Oberstdorf Schrattenwang Berg","cam":{"id":2418,"name":"Oberstdorf Schrattenwang Berg","latitude":47.378611,"longitude":10.241187,"zeroDirection":358,"viewAngle":100,"iconUrl":"https:\/\/static.panomax.com\/img\/panomax\/icon.png","mapMarkerGravity":"middle-center","nightVision":true}},"3194":{"id":3194,"name":"Thonnerhof Aigen im Ennstal","cam":{"id":2420,"name":"Thonnerhof Aigen im Ennstal","latitude":47.503019,"longitude":14.165471,"zeroDirection":288,"viewAngle":100,"iconUrl":"https:\/\/static.panomax.com\/img\/panomax\/icon.png","mapMarkerGravity":"middle-center","nightVision":true}},"3195":{"id":3195,"name":"Planneralm Seekaralm","cam":{"id":2421,"name":"Planneralm Seekaralm","latitude":47.406238,"longitude":14.201029,"zeroDirection":195,"viewAngle":100,"iconUrl":"https:\/\/static.panomax.com\/img\/panomax\/icon.png","mapMarkerGravity":"middle-center","nightVision":true}},"3223":{"id":3223,"name":"Piancavallo Busa del Sauc","cam":{"id":2448,"name":"Piancavallo Busa del Sauc","latitude":46.105231,"longitude":12.511539,"zeroDirection":180,"viewAngle":100,"iconUrl":"https:\/\/static.panomax.com\/img\/panomax\/icon.png","mapMarkerGravity":"middle-center","nightVision":true}},"3241":{"id":3241,"name":"Union Lido","cam":{"id":2463,"name":"Union Lido","latitude":45.465056,"longitude":12.528097,"zeroDirection":53,"viewAngle":360,"iconUrl":"https:\/\/static.panomax.com\/img\/panomax\/icon.png","mapMarkerGravity":"middle-center","nightVision":false}},"3251":{"id":3251,"name":"Aschach Faustschl\u00f6ssl","cam":{"id":2472,"name":"Aschach Faustschl\u00f6ssl","latitude":48.369128,"longitude":14.033075,"zeroDirection":287,"viewAngle":100,"iconUrl":"https:\/\/static.panomax.com\/img\/panomax\/icon.png","mapMarkerGravity":"middle-center","nightVision":true}},"3252":{"id":3252,"name":"St. Agatha Pyramide Etzinger H\u00fcgel","cam":{"id":2473,"name":"St. Agatha Pyramide Etzinger H\u00fcgel","latitude":48.399489,"longitude":13.873058,"zeroDirection":114,"viewAngle":360,"iconUrl":"https:\/\/static.panomax.com\/img\/panomax\/icon.png","mapMarkerGravity":"middle-center","nightVision":true}},"3253":{"id":3253,"name":"Ried im Oberinntal","cam":{"id":2474,"name":"Ried im Oberinntal","latitude":47.055095,"longitude":10.660231,"zeroDirection":271,"viewAngle":100,"iconUrl":"https:\/\/static.panomax.com\/img\/panomax\/icon.png","mapMarkerGravity":"middle-center","nightVision":true}},"3275":{"id":3275,"name":"Donnersbachwald","cam":{"id":2491,"name":"Donnersbachwald","latitude":47.383601,"longitude":14.121647,"zeroDirection":280,"viewAngle":184,"iconUrl":"https:\/\/static.panomax.com\/img\/panomax\/icon.png","mapMarkerGravity":"middle-center","nightVision":true}},"3276":{"id":3276,"name":"Pal\u00fcd","cam":{"id":2492,"name":"Pal\u00fcd","latitude":47.10434,"longitude":9.717151,"zeroDirection":160,"viewAngle":360,"iconUrl":"https:\/\/static.panomax.com\/img\/panomax\/icon.png","mapMarkerGravity":"middle-center","nightVision":false}},"3292":{"id":3292,"name":"Helsinki Shipyard","cam":{"id":2506,"name":"Helsinki Shipyard","latitude":60.154553,"longitude":24.928775,"zeroDirection":70,"viewAngle":360,"iconUrl":"https:\/\/static.panomax.com\/img\/panomax\/icon.png","mapMarkerGravity":"middle-center","nightVision":true}},"3303":{"id":3303,"name":"Altstadt-Hotel Freiberg","cam":{"id":2514,"name":"Altstadt-Hotel Freiberg","latitude":50.91772,"longitude":13.348091,"zeroDirection":185,"viewAngle":360,"iconUrl":"https:\/\/static.panomax.com\/img\/panomax\/icon.png","mapMarkerGravity":"middle-center","nightVision":false}},"3304":{"id":3304,"name":"Viking Octantis","cam":{"id":2515,"name":"Viking Octantis","latitude":43.696111,"longitude":-77.780278,"zeroDirection":87,"viewAngle":360,"tourCam":true,"iconUrl":"https:\/\/static.panomax.com\/cams\/resources\/2515\/default\/cam_icon.png","mapMarkerGravity":"middle-center","nightVision":false}},"3306":{"id":3306,"name":"Viking Venus","cam":{"id":2517,"name":"Viking Venus","latitude":57.043056,"longitude":-135.326667,"viewAngle":360,"tourCam":true,"iconUrl":"https:\/\/static.panomax.com\/cams\/resources\/2517\/default\/cam_icon.png","mapMarkerGravity":"middle-center","nightVision":false}},"3315":{"id":3315,"name":"Nordschleife Start - extern","cam":{"id":2527,"name":"Nordschleife Start - extern","latitude":50.346342,"longitude":6.966417,"zeroDirection":100,"viewAngle":360,"iconUrl":"https:\/\/static.panomax.com\/img\/panomax\/icon.png","mapMarkerGravity":"middle-center","nightVision":false}},"3377":{"id":3377,"name":"Bosia","cam":{"id":2583,"name":"Bosia","latitude":44.602546,"longitude":8.146125,"zeroDirection":30,"viewAngle":360,"iconUrl":"https:\/\/static.panomax.com\/img\/panomax\/icon.png","mapMarkerGravity":"middle-center","nightVision":false}},"3383":{"id":3383,"name":"Lignano","cam":{"id":2589,"name":"Lignano","latitude":45.690988,"longitude":13.147703,"zeroDirection":55,"viewAngle":360,"iconUrl":"https:\/\/static.panomax.com\/img\/panomax\/icon.png","mapMarkerGravity":"middle-center","nightVision":false}},"3384":{"id":3384,"name":"Fichtensee","cam":{"id":2590,"name":"Fichtensee","latitude":47.252853,"longitude":11.944035,"zeroDirection":265,"viewAngle":185,"iconUrl":"https:\/\/static.panomax.com\/img\/panomax\/icon.png","mapMarkerGravity":"middle-center","nightVision":false}},"3392":{"id":3392,"name":"Halblech","cam":{"id":2597,"name":"St. Peter","latitude":47.63004,"longitude":10.805042,"zeroDirection":175,"viewAngle":100,"iconUrl":"https:\/\/static.panomax.com\/img\/panomax\/icon.png","mapMarkerGravity":"middle-center","nightVision":true}},"3435":{"id":3435,"name":"Strandbar Wittd\u00fcn","cam":{"id":2631,"name":"Amrum Strandbar Wittd\u00fcn","latitude":54.624687,"longitude":8.388206,"zeroDirection":175,"viewAngle":190,"iconUrl":"https:\/\/static.panomax.com\/img\/panomax\/icon.png","mapMarkerGravity":"middle-center","nightVision":true}},"3438":{"id":3438,"name":"Strand 33 Norddorf","cam":{"id":2634,"name":"Amrum Strand 33 Norddorf","latitude":54.686905,"longitude":8.322802,"zeroDirection":25,"viewAngle":360,"iconUrl":"https:\/\/static.panomax.com\/img\/panomax\/icon.png","mapMarkerGravity":"middle-center","nightVision":true}},"3447":{"id":3447,"name":"F\u00e4hranleger Wittd\u00fcn","cam":{"id":2643,"name":"Amrum F\u00e4hranleger Wittd\u00fcn","latitude":54.628987,"longitude":8.396581,"zeroDirection":180,"viewAngle":360,"iconUrl":"https:\/\/static.panomax.com\/img\/panomax\/icon.png","mapMarkerGravity":"middle-center","nightVision":true}},"3450":{"id":3450,"name":"Nebel Wattenmeer","cam":{"id":2646,"name":"Amrum Nebel","latitude":54.658663,"longitude":8.358381,"zeroDirection":98,"viewAngle":260,"iconUrl":"https:\/\/static.panomax.com\/img\/panomax\/icon.png","mapMarkerGravity":"middle-center","nightVision":true}},"3453":{"id":3453,"name":"Grawand","cam":{"id":2649,"name":"Schnalstal Grawand","latitude":46.76912,"longitude":10.799428,"zeroDirection":52,"viewAngle":360,"iconUrl":"https:\/\/static.panomax.com\/img\/panomax\/icon.png","mapMarkerGravity":"middle-center","nightVision":true}},"3500":{"id":3500,"name":"Nockalm \u2013 Glockenh\u00fctte","cam":{"id":2693,"name":"Glockenh\u00fctte Nockalm","latitude":46.890164,"longitude":13.794146,"zeroDirection":165,"viewAngle":180,"iconUrl":"https:\/\/static.panomax.com\/img\/panomax\/icon.png","mapMarkerGravity":"middle-center","nightVision":true}},"3517":{"id":3517,"name":"Rhemes Municipio","cam":{"id":2690,"name":"Rhemes Municipio","latitude":45.569681,"longitude":7.118449,"zeroDirection":60,"viewAngle":360,"iconUrl":"https:\/\/static.panomax.com\/img\/panomax\/icon.png","mapMarkerGravity":"middle-center","nightVision":false}},"3521":{"id":3521,"name":"kfv","cam":{"id":2705,"name":"KFV - Wien","latitude":48.16534,"longitude":16.377759,"zeroDirection":140,"viewAngle":360,"iconUrl":"https:\/\/static.panomax.com\/img\/panomax\/icon.png","mapMarkerGravity":"middle-center","nightVision":true}},"3537":{"id":3537,"name":"Gaberlhaus West","cam":{"id":2340,"name":"Gaberl West Zeltweg","latitude":47.107714,"longitude":14.916627,"zeroDirection":285,"viewAngle":100,"iconUrl":"https:\/\/static.panomax.com\/img\/panomax\/icon.png","mapMarkerGravity":"middle-center","nightVision":true}},"3540":{"id":3540,"name":"Gaberlhaus Ost","cam":{"id":2702,"name":"Gaberl Ost K\u00f6flach","latitude":47.107719,"longitude":14.916623,"zeroDirection":70,"viewAngle":100,"iconUrl":"https:\/\/static.panomax.com\/img\/panomax\/icon.png","mapMarkerGravity":"middle-center","nightVision":true}},"3555":{"id":3555,"name":"Hotel Viktor","cam":{"id":2730,"name":"Hotel Viktor","latitude":47.302839,"longitude":9.678519,"zeroDirection":212,"viewAngle":100,"iconUrl":"https:\/\/static.panomax.com\/img\/panomax\/icon.png","mapMarkerGravity":"middle-center","nightVision":true}},"3576":{"id":3576,"name":"Pejo - Saroden","cam":{"id":2748,"name":"Saroden","latitude":46.382347,"longitude":10.662545,"zeroDirection":180,"viewAngle":360,"iconUrl":"https:\/\/static.panomax.com\/img\/panomax\/icon.png","mapMarkerGravity":"middle-center","nightVision":false}},"3610":{"id":3610,"name":"Kaltenbachalm - S\u00f6lkpass Nord","cam":{"id":2262,"name":"S\u00f6lkpass Nord","latitude":47.273978,"longitude":14.078473,"zeroDirection":5,"viewAngle":100,"iconUrl":"https:\/\/static.panomax.com\/img\/panomax\/icon.png","mapMarkerGravity":"middle-center","nightVision":true}},"3613":{"id":3613,"name":"Kaltenbachalm - S\u00f6lkpass S\u00fcd","cam":{"id":2742,"name":"S\u00f6lkpass S\u00fcd","latitude":47.27393,"longitude":14.078757,"zeroDirection":180,"viewAngle":100,"iconUrl":"https:\/\/static.panomax.com\/img\/panomax\/icon.png","mapMarkerGravity":"middle-center","nightVision":true}},"3616":{"id":3616,"name":"Inneralpbach Hotel Galtenberg","cam":{"id":2782,"name":"Inneralpbach Hotel Galtenberg","latitude":47.374767,"longitude":11.960705,"zeroDirection":157,"viewAngle":360,"iconUrl":"https:\/\/static.panomax.com\/img\/panomax\/icon.png","mapMarkerGravity":"middle-center","nightVision":true}},"3669":{"id":3669,"name":"Grand Prix Strecke - Extern","cam":{"id":2835,"name":"Grand Prix Strecke - Extern","latitude":50.335846,"longitude":6.947465,"zeroDirection":330,"viewAngle":360,"iconUrl":"https:\/\/static.panomax.com\/img\/panomax\/icon.png","mapMarkerGravity":"middle-center","nightVision":true}},"3684":{"id":3684,"name":"Tiroler Zugspitzbahn Talstation","cam":{"id":2850,"name":"Tiroler Zugspitzbahn Talstation","latitude":47.426061,"longitude":10.941625,"viewAngle":360,"iconUrl":"https:\/\/static.panomax.com\/img\/panomax\/icon.png","mapMarkerGravity":"middle-center","nightVision":false}},"3696":{"id":3696,"name":"Udine Castello","cam":{"id":2859,"name":"Udine Castello","latitude":46.064402,"longitude":13.235781,"zeroDirection":318,"viewAngle":360,"iconUrl":"https:\/\/static.panomax.com\/img\/panomax\/icon.png","mapMarkerGravity":"middle-center","nightVision":null}},"3705":{"id":3705,"name":"Breitenbergbahn","cam":{"id":2868,"name":"Hochalpbahn - Breitenbergbahn","latitude":47.545636,"longitude":10.558912,"zeroDirection":115,"viewAngle":360,"iconUrl":"https:\/\/static.panomax.com\/img\/panomax\/icon.png","mapMarkerGravity":"middle-center","nightVision":false}},"3708":{"id":3708,"name":"Pfronten","cam":{"id":2871,"name":"Pfronten Skizentrum","latitude":47.561616,"longitude":10.55627,"zeroDirection":25,"viewAngle":113,"iconUrl":"https:\/\/static.panomax.com\/img\/panomax\/icon.png","mapMarkerGravity":"middle-center","nightVision":true}},"3711":{"id":3711,"name":"Rosenalp Oberstaufen","cam":{"id":2874,"name":"Rosenalp Oberstaufen","latitude":47.558355,"longitude":10.021738,"zeroDirection":173,"viewAngle":75,"iconUrl":"https:\/\/static.panomax.com\/img\/panomax\/icon.png","mapMarkerGravity":"middle-center","nightVision":true}},"3717":{"id":3717,"name":"Cortina Duca d\u0027Aosta","cam":{"id":2880,"name":"Cortina Duca d\u0027Aosta","latitude":46.53771,"longitude":12.085384,"zeroDirection":110,"viewAngle":360,"iconUrl":"https:\/\/static.panomax.com\/img\/panomax\/icon.png","mapMarkerGravity":"middle-center","nightVision":true}},"3720":{"id":3720,"name":"Cortina Pomedes","cam":{"id":2883,"name":"Cortina Pomedes","latitude":46.536187,"longitude":12.076176,"zeroDirection":48,"viewAngle":360,"iconUrl":"https:\/\/static.panomax.com\/img\/panomax\/icon.png","mapMarkerGravity":"middle-center","nightVision":true}},"3729":{"id":3729,"name":"Aprica Le Lische","cam":{"id":2889,"name":"Aprica Le Lische","latitude":46.150083,"longitude":10.160929,"zeroDirection":320,"viewAngle":100,"iconUrl":"https:\/\/static.panomax.com\/img\/panomax\/icon.png","mapMarkerGravity":"middle-center","nightVision":true}},"3732":{"id":3732,"name":"Ledro Mezzolago","cam":{"id":2892,"name":"Ledro Mezzolago","latitude":45.87568,"longitude":10.734957,"zeroDirection":90,"viewAngle":290,"iconUrl":"https:\/\/static.panomax.com\/img\/panomax\/icon.png","mapMarkerGravity":"middle-center","nightVision":true}},"3735":{"id":3735,"name":"Wegscheid","cam":{"id":2895,"name":"Wegscheid","latitude":48.601676,"longitude":13.779328,"zeroDirection":154,"viewAngle":360,"iconUrl":"https:\/\/static.panomax.com\/img\/panomax\/icon.png","mapMarkerGravity":"middle-center","nightVision":true}},"3772":{"id":3772,"name":"Fleiding","cam":{"id":2929,"name":"Westendorf Fleiding","latitude":47.40254,"longitude":12.250166,"zeroDirection":195,"viewAngle":360,"iconUrl":"https:\/\/static.panomax.com\/img\/panomax\/icon.png","mapMarkerGravity":"middle-center","nightVision":true}},"3775":{"id":3775,"name":"Piz dePlaies","cam":{"id":2932,"name":"Piz de Plaies","latitude":46.698011,"longitude":11.911944,"zeroDirection":175,"viewAngle":360,"iconUrl":"https:\/\/static.panomax.com\/img\/panomax\/icon.png","mapMarkerGravity":"middle-center","nightVision":true}},"3850":{"id":3850,"name":"Deggendorf","cam":{"id":3004,"name":"Deggendorf","latitude":48.817477,"longitude":13.021565,"zeroDirection":55,"viewAngle":360,"iconUrl":"https:\/\/static.panomax.com\/img\/panomax\/icon.png","mapMarkerGravity":"middle-center","nightVision":false}},"3853":{"id":3853,"name":"Pianazzo","cam":{"id":3007,"name":"Pianazzo","latitude":46.427474,"longitude":9.343979,"zeroDirection":270,"viewAngle":180,"iconUrl":"https:\/\/static.panomax.com\/img\/panomax\/icon.png","mapMarkerGravity":"middle-center","nightVision":true}},"3865":{"id":3865,"name":"Aussichtsturm Oberfrauenwald","cam":{"id":3019,"name":"Aussichtsturm Oberfrauenwald","latitude":48.684974,"longitude":13.657766,"zeroDirection":277,"viewAngle":360,"iconUrl":"https:\/\/static.panomax.com\/img\/panomax\/icon.png","mapMarkerGravity":"middle-center","nightVision":false}},"3868":{"id":3868,"name":"Montespluga","cam":{"id":3022,"name":"Montespluga","latitude":46.489222,"longitude":9.336943,"zeroDirection":184,"viewAngle":180,"iconUrl":"https:\/\/static.panomax.com\/img\/panomax\/icon.png","mapMarkerGravity":"middle-center","nightVision":true}},"3874":{"id":3874,"name":"Isola","cam":{"id":3028,"name":"180\u00b0 Panomax Isola 1300mslm","latitude":46.444964,"longitude":9.334625,"zeroDirection":250,"viewAngle":180,"iconUrl":"https:\/\/static.panomax.com\/img\/panomax\/icon.png","mapMarkerGravity":"middle-center","nightVision":true}},"3906":{"id":3906,"name":"Villacher Alpenstra\u00dfe - Rosstratte","cam":{"id":3042,"name":"Villacher Alpenstra\u00dfe - Rosstratte","latitude":46.59305,"longitude":13.712191,"zeroDirection":274,"viewAngle":360,"iconUrl":"https:\/\/static.panomax.com\/img\/panomax\/icon.png","mapMarkerGravity":"middle-center","nightVision":true}},"3918":{"id":3918,"name":"Bingen Papa Rhein","cam":{"id":3054,"name":"Bingen Papa Rhein","latitude":49.970771,"longitude":7.911637,"zeroDirection":5,"viewAngle":190,"iconUrl":"https:\/\/static.panomax.com\/img\/panomax\/icon.png","mapMarkerGravity":"middle-center","nightVision":true}},"3924":{"id":3924,"name":"St. Florian bei Linz","cam":{"id":3060,"name":"St. Florian bei Linz","latitude":48.195851,"longitude":14.387666,"zeroDirection":300,"viewAngle":200,"iconUrl":"https:\/\/static.panomax.com\/img\/panomax\/icon.png","mapMarkerGravity":"middle-center","nightVision":true}},"3927":{"id":3927,"name":"Bayernh\u00fctte am Brauneck","cam":{"id":3063,"name":"Bayernh\u00fctte am Brauneck","latitude":47.656001,"longitude":11.517494,"zeroDirection":113,"viewAngle":360,"iconUrl":"https:\/\/static.panomax.com\/img\/panomax\/icon.png","mapMarkerGravity":"middle-center","nightVision":false}},"3963":{"id":3963,"name":"Liezen Langlaufzentrum Pyhrn","cam":{"id":3093,"name":"Liezen Langlaufzentrum Pyhrn","latitude":47.601225,"longitude":14.284154,"zeroDirection":170,"viewAngle":360,"iconUrl":"https:\/\/static.panomax.com\/img\/panomax\/icon.png","mapMarkerGravity":"middle-center","nightVision":false}},